sitename,lon,lat,elv,year_start,year_end,canopy_height,reference_height,koeppen_code,igbp_land_use,whc,product,c3c4,mat,p_over_pet,start_gpp,end_gpp,year_start_gpp,year_end_gpp,nyears_gpp,drop_gpp,start_le,end_le,year_start_le,year_end_le,nyears_le,drop_le,start_lecorr,end_lecorr,year_start_lecorr,year_end_lecorr,nyears_lecorr,drop_lecorr,cti,cond_mean_ann,prec,aet,aet_corr,pet,pet_over_prec
AR-SLu,-66.45980072021484,-33.46480178833008,500,2010,2010,4.5,11,Bsk,MF,172.03424072265625,plumber,C3,21.666548133124437,0.24671177056566407,2010-01-01,2010-12-31,2010,2010,1,FALSE,2010-01-01,2010-12-31,2010,2010,1,FALSE,2010-01-01,2010-12-31,2010,2010,1,FALSE,7.5886406898498535,397.5573440790176,351.7000007079332,356.5304663374613,267.78885411768675,1758.5088524129055,5.000025160287807
AR-TF1,-66.7335,-54.9733,40,2016,2018,1.8565277797645992,5.059807703311627,ET,WET,159.9023406982422,ameriflux,NA,7.175663436937179,2.2078710543178626,2016-01-31,2018-05-18,2017,2017,1,FALSE,2016-01-31,2018-05-18,2017,2017,1,FALSE,NA,NA,NA,NA,0,TRUE,4.1035685539245605,344.5018035173416,811.4126673691317,250.34432919862286,NA,NA,NA
AT-Neu,11.317500114440918,47.116668701171875,970,2002,2012,1,3,Dfc,GRA,239.9513397216797,plumber,C3,8.564706393905437,1.0479538121859018,2002-01-01,2012-12-31,2002,2012,11,FALSE,2002-01-01,2012-12-31,2002,2012,11,FALSE,2002-01-01,2012-12-31,2002,2012,11,FALSE,11.392807960510254,348.1183804652908,668.5546402735988,456.5044892676739,646.5300103179452,771.9874351158958,1.1547110566758885
AU-ASM,133.24899291992188,-22.28300094604492,606,2011,2017,6.5,11.600000381469728,BSh,SAV,149.10943603515625,plumber,C3,25.484468085146503,0.21685505385045128,2011-10-15,2017-12-13,2012,2016,5,FALSE,2011-01-09,2017-12-13,2012,2016,5,FALSE,2011-01-09,2017-12-13,2012,2016,5,FALSE,7.487943172454834,404.7295150245939,362.42053564679475,305.4455926995218,391.39999004655886,2104.238948618482,5.806069859874652
AU-Cow,145.42715454101562,-16.238189697265625,86,2010,2015,22,35,Am,EBF,822.7951863606771,plumber,NA,24.830324072094392,3.972014637508069,2010-01-01,2015-12-20,2010,2014,5,FALSE,2010-01-01,2015-12-30,2010,2014,5,FALSE,2011-06-21,2015-12-30,2012,2014,3,FALSE,3.7225048542022705,401.7610911726952,4059.67281398116,1177.3897600507175,1354.911979795488,1480.3035742941092,0.36463617688501215
AU-Cpr,140.58912658691406,-34.00205993652344,76,2011,2017,4,8.823529411764707,BSk,SAV,141.81759643554688,plumber,C3,20.71200956676386,0.1879807845459581,2014-04-24,2017-12-31,2015,2017,3,FALSE,2014-04-23,2017-12-31,2015,2017,3,FALSE,2014-04-23,2017-12-31,2015,2017,3,FALSE,6.335378646850586,392.06508210727145,282.8857151144932,290.32847886995535,252.19168773344444,1560.5771021900723,5.516634523445113
AU-Ctr,145.4468536376953,-16.10327911376953,66,2010,2017,25,45,Am,EBF,943.68280029296875,plumber,NA,24.729997253429623,3.8339314013564816,2010-01-01,2013-12-22,2010,2012,3,FALSE,2010-01-01,2013-12-22,2010,2012,3,FALSE,2015-12-18,2017-12-01,2016,2016,1,FALSE,6.208099365234375,401.4958075731993,4230.124042869328,1356.5598606833328,NA,1625.8210684329679,0.3843435918087546
AU-Cum,150.72247314453125,-33.61329650878906,200,2013,2018,23,50.735294117647065,Cfa,EBF,179.55108642578125,plumber,C3,20.29878565646468,0.6585923554871822,2013-01-01,2018-12-31,2013,2018,6,FALSE,2013-01-01,2018-12-31,2013,2018,6,FALSE,2013-11-02,2018-12-31,2014,2018,5,FALSE,4.947836399078369,395.5773022274177,828.7000036558311,796.2163062917007,1094.5584652497032,2013.2607555197317,2.4294204738001457
AU-DaP,131.31809997558594,-14.063300132751465,116,2009,2012,0.30000001192092896,0.6617647321785198,Aw,GRA,597.201416015625,plumber,C3,28.68106660780456,0.7730160103050042,2009-01-04,2011-12-14,2010,2010,1,FALSE,2009-01-01,2011-12-14,2009,2010,2,FALSE,2009-01-01,2011-12-14,2009,2010,2,FALSE,5.7205095291137695,402.4561997652054,1367.6385034321358,774.3643955483401,868.4255492196232,2040.5325727670458,1.492011644631428
AU-DaS,131.38800048828125,-14.159282684326172,108,2010,2017,16.399999618530273,36.17646974675796,Aw,SAV,732.69219970703125,plumber,C3,28.232389159163887,0.8141579924960851,2011-04-09,2017-12-31,2012,2017,6,FALSE,2011-04-08,2017-12-31,2012,2017,6,FALSE,2012-12-18,2017-12-31,2013,2017,5,FALSE,5.971405982971191,402.765816450119,1356.2919938103732,989.2856443770531,1096.277961262801,2289.271298656209,1.6878897089296527
AU-Dry,132.37060546875,-15.25879955291748,191,2011,2015,12.300000190734863,27.13235336191514,Aw,SAV,672.0255126953125,plumber,C3,28.526456097076615,0.5528027757372732,2011-06-26,2015-12-23,2012,2014,3,FALSE,2011-02-03,2015-12-26,2012,2014,3,FALSE,2011-02-03,2015-12-26,2012,2014,3,FALSE,6.410485744476318,403.0035420417786,977.9120006880839,829.3007324187262,1030.8689594025095,2228.47152048118,2.2788057810039866
AU-Emr,148.47459411621094,-23.858699798583984,177,2012,2013,2,5.599999904632568,Bsh,GRA,130.61582946777344,plumber,mix,24.1386404701004,0.4157905478766846,2012-01-01,2013-12-31,2012,2013,2,FALSE,2012-01-01,2013-12-31,2012,2013,2,FALSE,2012-01-01,2013-12-31,2012,2013,2,FALSE,5.533915042877197,400.8846258223057,627.0500016475125,408.5966356258815,663.1802348439594,1999.140529476916,3.188167648870696
AU-GWW,120.6540985107422,-30.19129943847656,504,2013,2017,18,35,BWh,SAV,144.88778686523438,plumber,C3,20.939712269277457,0.19247785274394896,2013-01-01,2017-12-31,2013,2017,5,FALSE,2013-01-01,2017-12-31,2013,2017,5,FALSE,2013-01-01,2017-12-31,2013,2017,5,FALSE,10.991066932678223,398.2017516136169,303.92000046878826,262.89354233222866,330.41513365945536,1836.7981868936731,6.043689734339505
AU-Gin,115.6500015258789,-31.375,51,2012,2017,7,15,Csa,WSA,439.7334899902344,plumber,C3,20.979032071364404,0.4304866400038171,2012-01-01,2017-12-31,2012,2017,6,FALSE,2012-01-01,2017-12-31,2012,2017,6,FALSE,2012-01-01,2017-12-31,2012,2017,6,FALSE,6.465897560119629,394.7250570456187,626.0268008782077,591.7857789946096,745.7717993650035,2169.6861147925865,3.4658038789216223
AU-How,131.14999389648438,-12.495200157165527,41,2003,2017,16,35.294117647058826,Aw,WSA,558.27484130859375,plumber,C3,28.609480236152645,1.013849440541453,2008-02-02,2017-12-31,2009,2017,9,FALSE,2008-02-02,2017-12-31,2009,2017,9,FALSE,2008-02-02,2017-12-31,2009,2017,9,FALSE,5.722897529602051,402.0751044988632,1649.0483670427238,1209.3907818271418,1488.7402427311515,2452.907739424274,1.4874686446117584
AU-Lit,130.79449462890625,-13.17903995513916,200,2016,2017,20,31,Aw,WSA,543.70849609375,plumber,NA,28.02808827962722,1.017242860359615,2016-01-01,2017-12-31,2016,2017,2,FALSE,2016-01-01,2017-12-31,2016,2017,2,FALSE,2016-01-01,2017-12-31,2016,2017,2,FALSE,6.415281772613525,404.1336712241173,1563.1999967190498,1309.9553977921303,1477.1071643495916,2232.752521221923,1.428321728446888
AU-Otw,142.81680297851562,-38.53234100341797,54,2009,2010,0.10000000149011612,0.22058823858113852,Cfb,GRA,359.4934997558594,plumber,NA,14.075084576590957,0.35278287264874947,2009-01-01,2010-12-31,2009,2010,2,FALSE,2009-01-01,2010-12-31,2009,2010,2,FALSE,2009-01-01,2010-12-31,2009,2010,2,FALSE,4.628756999969482,374.9653621315956,391.8000016841688,671.9298601654871,812.8523820646835,1401.685332407612,3.57755315564678
AU-Rig,145.57589721679688,-36.649898529052734,133,2011,2016,0.4000000059604645,0.8823529543245541,Cfb,GRA,196.72129821777344,plumber,C3,17.41543574265483,0.41614845725633853,2013-08-27,2016-12-31,2014,2016,3,FALSE,2013-08-27,2016-12-31,2014,2016,3,FALSE,2013-09-12,2016-12-31,2014,2016,3,FALSE,7.1258039474487305,383.7734890778859,488.4916679813614,467.30664853775636,610.2903818235983,1544.2715945235627,3.1613059049811367
AU-Rob,145.63009643554688,-17.11750030517578,710,2014,2017,44,97.05882352941175,Cwa,EBF,851.1192626953125,plumber,C3,21.13985399136267,5.9452466381574105,2014-01-01,2017-12-31,2014,2017,4,FALSE,2014-01-01,2017-12-31,2014,2017,4,FALSE,2014-12-17,2017-12-31,2015,2017,3,FALSE,7.052748203277588,404.8550565838814,7894.795003512263,1172.0505508595893,1645.2814430211472,2446.8926382133195,0.3099374508299123
AU-Sam,152.8778076171875,-27.388099670410156,170,2011,2017,0.5,2,Cfa,GRA,511.2165222167969,plumber,NA,22.113913648550714,0.9594958129242628,2013-07-12,2017-12-31,2014,2017,4,FALSE,2011-05-17,2017-12-31,2012,2017,6,FALSE,2011-05-17,2017-12-31,2012,2017,6,FALSE,4.208469390869141,399.60665758166994,1253.593987222666,654.1550115167804,887.8618084997019,1924.9024194582246,1.5355070613595079
AU-Stp,133.35020446777344,-17.150699615478516,252,2010,2017,0.5,1.1029411764705883,BSh,GRA,324.3975830078125,plumber,C4,28.17377989617602,0.41999721016446967,2010-01-05,2017-11-02,2011,2016,6,FALSE,2010-01-01,2017-12-31,2010,2017,8,FALSE,2014-12-18,2016-01-14,2015,2015,1,FALSE,6.811386585235596,403.5786181986332,732.0000003046516,575.7809297623801,550.0418090597849,1934.8860122217009,2.643286900842103
AU-TTE,133.63999938964844,-22.28700065612793,553,2013,2017,4.849999904632568,9.8100004196167,BWh,GRA,174.94302368164062,plumber,C4,26.20116742256336,0.2327728971292625,2015-01-13,2017-12-13,2016,2016,1,FALSE,2013-01-06,2017-12-13,2014,2016,3,FALSE,2013-01-06,2017-12-13,2014,2016,3,FALSE,6.794765949249268,404.4996919512749,387.03999948076677,319.0401044883605,338.00040347661076,1872.4558268632704,4.83788711599644
AU-Tum,148.15170288085938,-35.65660095214844,1200,2002,2017,40,70,Cfb,EBF,504.646728515625,plumber,C3,10.503214430760584,0.4882616775048496,2010-09-11,2017-12-31,2011,2017,7,FALSE,2010-09-11,2017-12-31,2011,2017,7,FALSE,2010-09-11,2017-12-31,2011,2017,7,FALSE,4.934945106506348,371.5609466806054,507.32137053583983,909.5903389261123,1192.0789777604077,1635.0138597847608,3.2228365583295586
AU-Whr,145.02940368652344,-36.67319869995117,152,2015,2016,28,61.76470588235294,Cfb,EBF,196.9843292236328,plumber,C3,16.71229022120771,0.34400563393211664,2015-01-01,2016-12-31,2015,2016,2,FALSE,2015-01-01,2016-12-31,2015,2016,2,FALSE,2015-08-13,2016-12-31,2016,2016,1,FALSE,5.1105756759643555,382.03474670648575,409.3050008408682,508.9908885375115,708.4394710734745,1728.8670516933219,4.22390893866816
AU-Wrr,146.6544952392578,-43.09502029418945,100,2016,2017,90,198.52941176470588,Cfb,EBF,259.1888122558594,plumber,NA,11.804799539010418,1.692627978959026,2016-01-01,2017-12-31,2016,2017,2,FALSE,2016-07-20,2017-12-31,2017,2017,1,FALSE,2016-07-20,2017-12-31,2017,2017,1,FALSE,3.2755649089813232,364.9216857552528,1339.7742928253138,585.1622399138512,918.8583564659974,1473.7530607565957,1.1000009991599016
AU-Ync,146.2906951904297,-34.98929977416992,125,2011,2017,0.5,1.1029411764705883,BSk,GRA,238.2706298828125,plumber,mix,25.484468085146503,0.21685505385045128,2011-10-15,2017-12-13,2012,2016,5,FALSE,2011-01-09,2017-12-13,2012,2016,5,FALSE,2011-01-09,2017-12-13,2012,2016,5,FALSE,8.338541030883789,400.8262258682932,362.42053564679475,305.4455926995218,391.39999004655886,2104.238948618482,5.806069859874652
BE-Bra,4.51984,51.30761,16,1996,2020,21,41,Cfb,MF,262.9107971191406,icos_warmwinter2020,C3,11.45397235320968,1.2964461402464649,2009-01-04,2020-12-31,2010,2020,11,FALSE,2004-01-01,2020-12-31,2004,2020,17,FALSE,2004-01-01,2017-02-04,2004,2016,13,FALSE,5.210631847381592,356.32627695798874,802.2541177461821,325.24199697137027,390.70383846204277,1035.330058191422,1.2905263248757555
BE-Dor,4.968113,50.311874,253,2011,2020,0.4707806229810339,1.038486668340516,Cfb,GRA,195.8311767578125,icos_warmwinter2020,C3,11.364062915018186,1.0414413842658847,2011-01-01,2020-12-31,2011,2020,10,FALSE,2015-01-06,2018-07-19,2016,2017,2,FALSE,NA,NA,NA,NA,0,TRUE,6.830763816833496,358.7027087688446,618.9382029345552,275.92158845504895,NA,940.9945206217196,1.5203367899415603
BE-Lcr,3.85,51.1,5,2019,2020,19.4375,42.87683823529412,Cfb,DBF,192.59117126464844,icos_warmwinter2020,C3,12.53507939467009,1.213449911180734,2019-01-01,2020-12-31,2019,2020,2,FALSE,2019-01-01,2020-12-31,2019,2020,2,FALSE,NA,NA,NA,NA,0,TRUE,5.908210277557373,362.5213344693184,761.6809992484492,428.5532329777626,NA,NA,NA
BE-Lon,4.746234,50.55162,170,2004,2020,1,3.2062500000000003,Cfb,CRO,183.68844604492188,icos_warmwinter2020,rotation,12.085368542054674,1.1989392148315507,2004-04-01,2020-12-31,2005,2020,16,FALSE,2004-04-01,2020-12-31,2005,2020,16,FALSE,2004-04-01,2019-12-13,2005,2018,14,FALSE,4.730678558349609,360.5410117226488,716.5338845515527,376.37089279487134,557.1780824097758,895.6897327342996,1.2500312295696563
BE-Maa,5.631851,50.97987,87,2016,2020,2,3.5,Cfb,CSH,248.58624267578125,icos_warmwinter2020,C3,12.33760775999516,1.21186797041123,2016-01-01,2020-12-31,2016,2020,5,FALSE,2016-01-01,2020-12-31,2016,2020,5,FALSE,NA,NA,NA,NA,0,TRUE,6.9987382888793945,360.23964524269104,785.569801866061,300.4010494773484,NA,NA,NA
BE-Vie,5.998099,50.304962,490,1996,2020,35,77.20588235294119,Cfb,MF,224.2619476318359,icos_warmwinter2020,C3,9.144253118504071,1.3008596914749688,1996-08-01,2020-12-31,1997,2020,24,FALSE,1996-08-01,2009-03-24,1997,2008,12,FALSE,1996-08-01,2009-03-24,1997,2008,12,FALSE,4.410557746887207,349.1290919828415,900.2209232870268,373.12228419198016,458.5073435653139,1131.75860349202,1.257200953916475
BR-CST,-38.3842,-7.9682,468,2014,2015,2,5.599999904632568,Bsh,DNF,732.203369140625,ameriflux,NA,27.847447372737516,0.2486625431408619,2014-06-14,2015-08-01,2015,2014,0,TRUE,2014-06-14,2015-08-01,2015,2014,0,TRUE,NA,NA,NA,NA,0,TRUE,3.783748149871826,406.70480942726135,439.3690034492635,434.71562879658586,NA,NA,NA
BR-Npw,-56.412,-16.498,120,2013,2017,18,27,Aw,WSA,545.24578857421875,ameriflux,NA,27.280183576993817,0.8569785968664791,2015-01-17,2017-07-01,2016,2016,1,FALSE,2015-01-17,2017-07-01,2016,2016,1,FALSE,NA,NA,NA,NA,0,TRUE,6.812227249145508,402.29794631004336,1501.2786003433716,1209.4273112336812,NA,2317.1669413613918,1.543462313278435
BR-Sa3,-54.971435546875,-3.01802921295166,100,2001,2003,40,64,Am,EBF,661.40325927734375,plumber,C3,26.6714755590447,0.9007651932469856,2001-01-01,2003-12-18,2001,2002,2,FALSE,2001-01-01,2003-12-18,2001,2002,2,FALSE,2001-01-01,2003-12-18,2001,2002,2,FALSE,7.05645751953125,402.0157389243443,1408.0369957897344,1209.465497698122,1434.4546729250044,2065.9319294778857,1.4672426474981601
BW-Ma1,23.56032943725586,-19.916500091552734,929,2000,2000,8,12.600000381469728,BSh,SAV,359.0039367675781,plumber,NA,24.571028516772937,0.32313987861910326,2000-01-14,2000-12-31,2001,2000,0,TRUE,2000-01-01,2000-12-31,2000,2000,1,FALSE,2000-01-01,2000-12-31,2000,2000,1,FALSE,6.107773780822754,411.3134243488312,429.47418812138943,461.5143248065852,608.1028436891698,2250.2177140511358,5.239471372875893
CA-ARB,-83.9452,52.695,90,2011,2015,0.8200000047683715,1.8088235399302317,Dfb,WET,851.85333251953125,ameriflux,NA,-0.02402126342403052,0.8203143448557522,2011-03-29,2015-12-23,2012,2014,3,FALSE,2011-03-27,2015-12-23,2012,2014,3,FALSE,NA,NA,NA,NA,0,TRUE,10.361634254455566,176.02390533685684,431.04060110645156,344.0927500695958,NA,NA,NA
CA-ARF,-83.955,52.7008,88,2011,2015,0.8200000047683715,1.8088235399302317,Dfb,WET,851.85333251953125,ameriflux,NA,0.1930609273848175,0.8575884376565294,2011-03-30,2015-12-31,2012,2015,4,FALSE,2011-03-29,2015-12-31,2012,2015,4,FALSE,NA,NA,NA,NA,0,TRUE,10.566325187683105,176.74476781338453,448.9098014097908,351.2537179934201,NA,NA,NA
CA-Ca1,-125.3336,49.8673,300,1996,2010,15.01866664759318,25.73499988555908,Cfb,ENF,293.2023620605469,ameriflux,C3,12.874985913968194,2.9351854031441524,1997-12-09,2010-12-31,1998,2010,13,FALSE,1997-10-13,2010-12-30,1998,2009,12,FALSE,1997-10-13,2010-12-30,1998,2009,12,FALSE,4.041609287261963,185.1391427755356,2355.747734179422,364.82618681929057,588.2945028500955,1223.7895754581489,0.5194909275310974
CA-Ca2,-125.2909,49.8705,300,1999,2010,15.01866664759318,25.73499988555908,Cfb,ENF,301.47882080078125,ameriflux,C3,9.949193461929084,3.441027867215924,2000-07-27,2010-12-31,2001,2010,10,FALSE,2000-07-27,2010-12-31,2001,2010,10,FALSE,2000-07-27,2010-12-31,2001,2010,10,FALSE,4.164167881011963,181.56120099624,2056.5305006877625,278.98899479384323,380.83427329423677,992.884028567868,0.48279567370180954
CA-Cbo,-79.9333,44.3167,120,1994,2020,23.183333333333337,51.13970588235294,Dfb,DBF,247.0664825439453,ameriflux,C3,8.64235881298137,1.1717520255338447,2008-02-12,2020-12-31,2009,2020,12,FALSE,2005-04-14,2020-12-31,2006,2020,15,FALSE,2005-04-14,2020-12-31,2006,2020,15,FALSE,4.099686622619629,326.7240978214476,928.3165933883234,480.7041007802326,613.3977905967847,1340.9325765802523,1.4444776557164565
CA-DB2,-122.9951,49.119,4,2019,2020,2.596904761904762,5.059687523841858,Csb,WET,221.9344940185547,ameriflux,NA,11.078052071336526,2.1575758836345953,2019-11-22,2020-12-31,2020,2020,1,FALSE,2019-11-19,2020-12-31,2020,2020,1,FALSE,2019-11-19,2020-12-31,2020,2020,1,FALSE,9.10678482055664,353.6494323015213,1265.9600035018798,201.77221471793422,253.76666785052885,1217.8811412129332,0.962021815731973
CA-DBB,-122.9849,49.1293,4,2014,2020,2.596904761904762,5.059687523841858,Csb,WET,221.9344940185547,ameriflux,NA,11.550997586394065,1.408776463997708,2016-02-14,2020-12-31,2017,2020,4,FALSE,2016-02-14,2020-12-31,2017,2020,4,FALSE,2016-02-14,2020-12-31,2017,2020,4,FALSE,9.96415901184082,355.7006643584796,1158.2747187221198,386.636707319931,587.4689060631222,1294.965759892783,1.1180126259869239
CA-ER1,-80.4123,43.6405,370,2015,2021,1.9984558823529412,5.7072,Dfb,CRO,165.9332275390625,ameriflux,NA,8.479880270009216,1.429303465581815,2015-06-18,2020-12-31,2016,2020,5,FALSE,2015-06-17,2020-12-31,2016,2020,5,FALSE,NA,NA,NA,NA,0,TRUE,5.974582672119141,328.4364953140418,1008.5830006828701,638.2159201124041,NA,NA,NA
CA-Gro,-82.1556,48.2167,340,2003,2014,31,68.38235294117648,Dfb,MF,237.40826416015625,ameriflux,C3,4.195772698853447,1.1857537999162169,2003-08-28,2014-05-18,2004,2013,10,FALSE,2003-08-25,2014-05-18,2004,2013,10,FALSE,2003-08-25,2014-05-18,2004,2013,10,FALSE,4.683863639831543,296.8949173664053,830.3200001511897,384.2042421526073,538.4456443534111,1245.4660665821195,1.4999832189461142
CA-LP1,-122.8414,55.1119,751,2007,2022,15.01866664759318,25.73499988555908,Csa,ENF,262.4881286621094,ameriflux,NA,4.07276434851229,1.0467941026647982,2007-05-04,2012-10-25,2008,2011,4,FALSE,2007-05-04,2012-10-25,2008,2011,4,FALSE,2007-05-04,2012-10-25,2008,2011,4,FALSE,7.248086452484131,309.9820337306176,538.5635863623713,244.28166976777658,282.7798818308579,1017.0536783951877,1.8884560786307327
CA-MA1,-97.8762,50.1645,261,2009,2011,1.9984558823529412,5.7072,Dfb,CRO,182.9694061279297,ameriflux,NA,2.8123548876275195,0.6312024462507384,2009-05-23,2010-10-13,2010,2009,0,TRUE,2009-05-23,2010-10-13,2010,2009,0,TRUE,NA,NA,NA,NA,0,TRUE,8.402433395385742,170.39715543637672,467.8090015347605,448.6868196064889,NA,NA,NA
CA-MA2,-97.8762,50.171,261,2009,2011,1.9984558823529412,5.7072,Dfb,CRO,182.9694061279297,ameriflux,NA,4.758008214941675,0.7599314342887212,2009-05-15,2010-01-09,2010,2009,0,TRUE,2011-04-01,2011-11-30,2012,2010,-1,TRUE,2011-04-01,2011-11-30,2012,2010,-1,TRUE,6.610469818115234,178.30926553656658,484.33800080101724,400.54466992958,677.3569067422914,881.6977694781682,1.8204183194793342
CA-MA3,-97.8686,50.1774,261,2009,2011,0.6142857159887042,1.3550420205633182,Dfb,GRA,182.9694061279297,ameriflux,NA,4.738520487985585,0.8310768404872022,2011-04-05,2011-11-30,2012,2010,-1,TRUE,2011-04-01,2011-11-30,2012,2010,-1,TRUE,2011-04-01,2011-11-30,2012,2010,-1,TRUE,12.534753799438477,178.41871337592602,484.33800080101724,450.2427629125248,NA,NA,NA
CA-NS1,-98.4839,55.8792,260,2001,2005,20,44.117647058823536,Dfc,ENF,741.468994140625,ameriflux,C3,2.470586202783549,0.2323118188751791,2002-06-26,2005-09-27,2003,2004,2,FALSE,2002-06-26,2005-09-27,2003,2004,2,FALSE,NA,NA,NA,NA,0,TRUE,5.618974208831787,271.22421284019947,164.01160042274344,349.7634728643961,NA,NA,NA
CA-NS2,-98.5247,55.9058,260,2001,2005,20,44.117647058823536,Dfc,ENF,758.646728515625,ameriflux,C3,-1.420916162354578,0.5855692174793865,2001-07-25,2004-11-14,2002,2003,2,FALSE,2001-07-25,2004-11-14,2002,2003,2,FALSE,NA,NA,NA,NA,0,TRUE,5.030539035797119,252.4125521302223,332.4672002779971,282.4407120219001,NA,1140.339438723388,3.429930645097854
CA-NS3,-98.3822,55.9117,260,2001,2005,12.444598754835717,27.451320782725848,Dfc,ENF,750.125244140625,ameriflux,C3,1.749934304624864,0.3431149201015791,2001-07-25,2005-09-24,2002,2004,3,FALSE,2001-07-25,2005-09-24,2002,2004,3,FALSE,NA,NA,NA,NA,0,TRUE,6.023646831512451,275.9127179592848,201.36559808149966,274.50746265297585,NA,1165.528322413477,5.78812038162421
CA-NS4,-98.3806,55.9144,260,2001,2005,7,15.441176470588236,Dfc,ENF,750.125244140625,ameriflux,C3,0.7768919023403277,0.5746626501252704,2004-05-04,2005-09-28,2005,2004,0,TRUE,2003-01-01,2005-09-28,2003,2004,2,FALSE,NA,NA,NA,NA,0,TRUE,5.281637668609619,NA,291.37339833600663,122.14713599342944,NA,1124.4710833264191,3.859209830918398
CA-NS5,-98.485,55.8631,260,2001,2005,5,9,Dfc,ENF,741.468994140625,ameriflux,C3,-0.4829890457997698,0.4532819501928985,2003-04-02,2005-09-25,2004,2004,1,FALSE,2003-04-01,2005-09-25,2004,2004,1,FALSE,NA,NA,NA,NA,0,TRUE,6.5356879234313965,254.4459146887064,264.9195988138763,281.8575668684484,NA,1140.012396302483,4.303239176741385
CA-NS6,-98.9644,55.9167,244,2001,2005,4,6,Dfc,OSH,729.70721435546875,ameriflux,C3,0.7254905296673315,0.42447680367372514,2001-10-01,2005-09-23,2002,2004,3,FALSE,2001-10-01,2005-09-23,2002,2004,3,FALSE,NA,NA,NA,NA,0,TRUE,3.761704206466675,260.716233766079,257.6709976239636,201.0833487859159,NA,1026.0969107890696,3.9821979200256017
CA-NS7,-99.9483,56.6358,297,2001,2005,0.25,0.5514705882352942,Dfc,OSH,807.2322998046875,ameriflux,C3,-0.19490624614790272,0.5318321840588398,2002-06-23,2005-09-30,2003,2004,2,FALSE,2002-06-22,2005-09-30,2003,2004,2,FALSE,NA,NA,NA,NA,0,TRUE,4.736624717712402,NA,302.2509985326473,338.06129412656117,NA,982.7956877274881,3.251587893832326
CA-Qcu,-74.036529541015625,49.2670783996582,392,2002,2006,5.5,12.132352941176473,Dfc,ENF,197.24952697753903,plumber,NA,1.6030536539503648,2.2839498693909563,2002-02-18,2006-12-31,2003,2006,4,FALSE,2002-01-23,2006-12-31,2003,2006,4,FALSE,2002-01-23,2006-12-31,2003,2006,4,FALSE,4.91405725479126,278.418776461482,928.9545952432867,326.4312324247533,332.8823937257122,960.4026554361552,1.0338531725381395
CA-Qfo,-74.3421,49.6925,382,2003,2010,13.8,24,Dfc,ENF,211.28390502929688,ameriflux,C3,1.9854310692209216,1.4809508528701023,2003-08-27,2010-12-31,2004,2010,7,FALSE,2003-08-27,2010-12-31,2004,2010,7,FALSE,2003-08-27,2010-12-31,2004,2010,7,FALSE,5.5115532875061035,280.8556482978165,950.8375025547451,295.07006248327207,433.14534447546384,1205.030373389644,1.26733576468316
CA-SF1,-105.8176,54.485,536,2003,2006,6,12.1,Dfc,ENF,887.1614990234375,ameriflux,C3,2.0023140376206756,0.7540598393291907,2005-04-08,2005-09-21,2006,2004,-1,TRUE,2003-07-17,2006-11-19,2004,2005,2,FALSE,2003-07-17,2006-11-19,2004,2005,2,FALSE,4.4785027503967285,282.6879247687757,905.1440025307104,1090.2453048098414,1317.952348345495,2112.930212306973,2.33435807606236
CA-SF1,-105.8176,54.485,536,2003,2006,6,12.1,Dfc,ENF,887.1614990234375,ameriflux,C3,2.0023140376206756,0.7540598393291907,2006-04-09,2006-09-22,2007,2005,-1,TRUE,2003-07-17,2006-11-19,2004,2005,2,FALSE,2003-07-17,2006-11-19,2004,2005,2,FALSE,4.4785027503967285,282.6879247687757,905.1440025307104,1090.2453048098414,1317.952348345495,2112.930212306973,2.33435807606236
CA-SF2,-105.8775,54.2539,520,2001,2006,4,9.144,Dfc,ENF,162.57510375976562,ameriflux,C3,3.566410845259252,0.577220805052907,2005-04-08,2005-09-21,2006,2004,-1,TRUE,2002-04-10,2005-10-27,2003,2004,2,FALSE,2002-04-10,2005-10-27,2003,2004,2,FALSE,6.052735805511475,294.3420441051324,358.4973349395568,445.2071239125545,542.0623693285027,961.1455861394098,2.6810396967147896
CA-SF3,-106.00530242919922,54.09159851074219,540,2003,2005,1,2.2058823529411766,Dfc,OSH,178.11813354492188,plumber,C3,2.752512650184374,0.7205359083433694,2003-04-09,2003-09-22,2004,2002,-1,TRUE,2003-01-01,2005-12-31,2003,2005,3,FALSE,2003-01-01,2005-12-31,2003,2005,3,FALSE,5.314791202545166,287.7869944125414,781.6013361836438,658.850922550756,876.775856033203,1785.5087705186252,2.284423897273258
CA-SF3,-106.00530242919922,54.09159851074219,540,2003,2005,1,2.2058823529411766,Dfc,OSH,178.11813354492188,plumber,C3,2.752512650184374,0.7205359083433694,2005-04-08,2005-09-21,2006,2004,-1,TRUE,2003-01-01,2005-12-31,2003,2005,3,FALSE,2003-01-01,2005-12-31,2003,2005,3,FALSE,5.314791202545166,287.7869944125414,781.6013361836438,658.850922550756,876.775856033203,1785.5087705186252,2.284423897273258
CA-TP1,-80.5595,42.6609,265,2002,2017,3.5444444444444443,5.333333333333333,Dfb,ENF,197.84371948242188,ameriflux,C3,10.356352369016788,1.0998928152170746,2008-05-01,2014-04-09,2009,2013,5,FALSE,2008-04-30,2014-04-10,2009,2013,5,FALSE,2008-04-30,2014-04-10,2009,2013,5,FALSE,6.675719261169434,339.5060696359724,836.7543162381082,342.29294474608645,459.58841795269007,1108.7946637861733,1.325113766692125
CA-TP3,-80.3483,42.7068,184,2002,2017,13.3,29.33823529411765,Dfb,ENF,197.84371948242188,ameriflux,C3,10.21744945903263,1.2862664354453637,2007-03-28,2017-12-31,2008,2017,10,FALSE,2007-03-28,2017-12-31,2008,2017,10,FALSE,2007-03-28,2017-12-31,2008,2017,10,FALSE,6.6750030517578125,337.42755892314017,1123.543750447068,446.5461368866348,578.1219896943173,1363.7332027079308,1.2137784595974026
CA-TPD,-80.5577,42.6353,260,2012,2017,25.7,56.69117647058824,Dfb,DBF,214.2979278564453,ameriflux,C3,10.61332354349354,1.0673682411709595,2012-01-01,2017-12-31,2012,2017,6,FALSE,2012-01-01,2017-12-31,2012,2017,6,FALSE,2012-01-01,2017-12-31,2012,2017,6,FALSE,6.388505935668945,341.1454304556052,881.6135021793798,363.4143640307353,596.2785468766657,1560.943571427625,1.7705531591439074
CH-Aws,9.790417,46.583306,2014,2006,2020,0.5750000029802322,1.2683823595152182,ET,GRA,218.63607788085935,icos_warmwinter2020,C3,7.084686845233244,1.7626956464397707,2014-05-20,2020-12-31,2015,2020,6,FALSE,2014-05-20,2020-12-31,2015,2020,6,FALSE,2011-04-18,2011-11-04,2012,2010,-1,TRUE,7.483077526092529,211.8316041668256,1364.2706014058513,836.6431079080834,NA,NA,NA
CH-Cha,8.410440444946289,47.21022033691406,393,2005,2020,0.5,1.1029411764705883,Cfb,GRA,240.23568725585935,icos_warmwinter2020,C3,11.429130710360532,1.5255244133498271,2009-08-14,2020-12-31,2010,2020,11,FALSE,2009-08-16,2020-12-31,2010,2020,11,FALSE,2009-08-16,2020-12-31,2010,2020,11,FALSE,5.828620910644531,355.8601705431938,1136.6858789137589,729.6472926994429,917.4475697327795,1146.7142876413661,1.0088224978541922
CH-Dav,9.85591,46.81533,1689,1997,2020,25,55.14705882352941,ET,ENF,223.23182678222656,icos_warmwinter2020,C3,5.549135442340891,1.1102321499510523,1997-01-01,2009-12-31,1997,2009,13,FALSE,1997-01-01,2020-12-31,1997,2020,24,FALSE,1997-01-01,2013-09-28,1997,2012,16,FALSE,2.306990146636963,347.3641991255184,838.1249612148081,578.5053764007167,932.9697251196211,1277.6930376810312,1.5244660364596438
CH-Fru,8.537779808044434,47.1158332824707,982,2005,2020,0.5,1.1029411764705883,Cfb,GRA,213.80369567871097,icos_warmwinter2020,C3,8.865263835794986,2.329549425225928,2010-03-05,2020-12-31,2011,2020,10,FALSE,2010-03-05,2020-12-31,2011,2020,10,FALSE,2010-03-05,2015-01-28,2011,2014,4,FALSE,3.620929002761841,353.6810458600521,1449.1351306195704,663.729078039743,831.3399807548019,970.7035946970818,0.6698502949701195
CH-Lae,8.365,47.47808333,645,2004,2020,14.420000076293944,47,Cfb,MF,216.66603088378903,icos_warmwinter2020,C3,8.960637233517652,1.2319371871264582,2004-03-31,2020-12-20,2005,2019,15,FALSE,2004-03-31,2020-12-25,2005,2019,15,FALSE,NA,NA,NA,NA,0,TRUE,2.618077516555786,346.96327450345547,840.4892975556603,744.578085761183,NA,NA,NA
CH-Oe1,7.731939792633057,47.285831451416016,450,2002,2008,0.5,2,Cfb,GRA,222.75596618652344,plumber,C3,9.897549124146009,1.977275585592536,2002-01-28,2008-12-31,2003,2008,6,FALSE,2002-01-26,2008-12-31,2003,2008,6,FALSE,NA,NA,NA,NA,0,TRUE,6.232672691345215,349.0847699216434,1222.343424475262,611.7481428393803,NA,958.1729739233358,0.7838819719054556
CH-Oe2,7.734333333,47.28630556,450,2004,2020,0.8930252772826303,2.0833333333333335,Cfb,CRO,222.75596618652344,icos_warmwinter2020,C3,10.722047100424849,1.585975930923393,2004-01-07,2020-12-31,2005,2020,16,FALSE,2004-01-01,2020-12-31,2004,2020,17,FALSE,NA,NA,NA,NA,0,TRUE,7.736750602722168,352.8218182640917,1128.7063567616456,650.7096976153609,NA,NA,NA
CN-Cha,128.09579467773438,42.40250015258789,754,2003,2005,28,61.76470588235294,Dwb,MF,247.1379547119141,plumber,C3,5.809592648754202,0.6914770974688168,2003-01-01,2005-12-31,2003,2005,3,FALSE,2003-01-01,2005-12-31,2003,2005,3,FALSE,NA,NA,NA,NA,0,TRUE,3.635377883911133,313.0663166542848,466.14333467057355,441.09292372938006,NA,1193.0533083160724,2.55941299505915
CN-Cng,123.50920104980467,44.59339904785156,138,2008,2009,0.75,2,Dwa,GRA,154.80770874023438,plumber,C3,7.840229368052414,0.42682783393017193,2008-01-01,2009-12-31,2008,2009,2,FALSE,2008-01-01,2009-12-31,2008,2009,2,FALSE,2008-01-01,2009-12-31,2008,2009,2,FALSE,6.659930229187012,308.71532544493675,332.8500008323317,416.96430979218076,635.1824973257399,1009.343973373522,3.0324289345036357
CN-Dan,91.06639862060548,30.497800827026367,4751,2004,2005,1,2.0999999046325684,ET,GRA,173.4037628173828,plumber,C3,4.322795846714192,0.5214553665252077,2004-01-05,2005-12-31,2005,2005,1,FALSE,2004-01-05,2005-12-31,2005,2005,1,FALSE,NA,NA,NA,NA,0,TRUE,7.9100799560546875,397.9757516980171,520.1500016049978,586.3249113322673,NA,1035.4628052774574,1.990700378895295
CN-Din,112.53610229492188,23.17329978942871,261,2003,2005,30,66.1764705882353,Cfa,EBF,242.55422973632812,plumber,C3,20.856340458880176,1.519034714960078,2003-01-01,2005-12-31,2003,2005,3,FALSE,2003-01-01,2005-12-31,2003,2005,3,FALSE,NA,NA,NA,NA,0,TRUE,2.5577943325042725,391.2056473692258,1373.545004155892,628.9507218858797,NA,1399.4895117549336,1.0188887204427537
CN-Du2,116.28359985351562,42.04669952392578,1331,2007,2008,0.5,1.1029411764705883,Dwb,GRA,166.8404083251953,plumber,C3,4.36991417652367,0.3736896022996101,2007-01-01,2008-12-31,2007,2008,2,FALSE,2007-01-01,2008-12-31,2007,2008,2,FALSE,2007-01-01,2008-10-24,2007,2007,1,FALSE,7.155744552612305,314.8508708178997,284.8985012498815,344.15843851895954,NA,1107.0821469148877,3.8858826636784496
CN-HaM,101.18000030517578,37.369998931884766,3975,2002,2003,0.30000001192092896,0.6617647321785198,ET,GRA,189.57565307617188,plumber,C3,2.549003748143295,0.7302452592779268,2002-01-08,2003-12-31,2003,2003,1,FALSE,2002-01-08,2003-12-31,2003,2003,1,FALSE,2002-01-08,2003-12-31,2003,2003,1,FALSE,2.527667284011841,367.0803800821304,583.3360015898393,335.8278373818236,550.9716982124484,1346.2026979499733,2.3077654975537203
CN-Qia,115.05809783935548,26.74139976501465,64,2003,2005,13,39.599998474121094,Cfa,ENF,228.145263671875,plumber,C3,18.99983491006852,1.363573333581132,2003-01-01,2005-12-31,2003,2005,3,FALSE,2003-01-01,2005-12-31,2003,2005,3,FALSE,NA,NA,NA,NA,0,TRUE,3.8304238319396973,376.93803085883457,1169.9080042682908,630.0339051812056,NA,1430.9674138461678,1.2231452461436525
CZ-BK1,18.536882,49.502075,875,2004,2020,12.444598754835717,27.451320782725848,Dfb,ENF,259.2153015136719,icos_warmwinter2020,C3,8.072089444139118,1.777240596188475,2004-01-01,2020-12-27,2004,2019,16,FALSE,2004-01-08,2020-12-31,2005,2020,16,FALSE,2013-09-19,2020-12-31,2014,2020,7,FALSE,2.337387800216675,345.95678121903364,1250.3360627962793,358.1380941964645,545.4354517786983,1147.5566580101095,0.9177985760433786
CZ-KrP,15.078773,49.573257,531,2014,2020,0.8930252772826303,2.9244699090980473,Cfb,CRO,215.42469787597656,icos_warmwinter2020,NA,10.294486790479494,0.9599738650981486,2014-01-01,2020-12-31,2014,2020,7,FALSE,2014-01-01,2020-12-31,2014,2020,7,FALSE,2014-02-27,2020-12-31,2015,2020,6,FALSE,3.5680816173553467,203.75257990615708,633.2007164294737,397.5644219913334,579.9878621044858,1023.5274154194399,1.6164343925429545
CZ-Lnz,16.946331,48.68155,150,2015,2020,29,60.325,Dfb,MF,218.02980041503903,icos_warmwinter2020,C3,12.39546711621415,0.6825417299077091,2015-01-01,2020-12-31,2015,2020,6,FALSE,2015-01-01,2020-12-31,2015,2020,6,FALSE,NA,NA,NA,NA,0,TRUE,5.522093772888184,355.7394864857197,497.03916904367134,543.1390037992413,NA,1191.4752076577813,2.39714550052512
CZ-RAJ,16.6965125,49.4437236,628,2012,2020,12.444598754835717,19.085428571428572,Dfb,ENF,240.9299774169922,icos_warmwinter2020,C3,8.936512581690643,1.029933394273228,2012-01-01,2020-12-31,2012,2020,9,FALSE,2012-01-01,2020-12-31,2012,2020,9,FALSE,2014-01-28,2020-12-31,2015,2020,6,FALSE,3.118736982345581,203.68126612073848,664.8645558454973,351.65368072043105,514.8018200238355,1284.3827267768208,1.9317960560305287
CZ-Stn,17.9699,49.035975,576,2010,2020,23.183333333333337,51.13970588235294,Dfb,DBF,234.6613311767578,icos_warmwinter2020,C3,9.746286804821548,0.9422225102997314,2010-01-01,2020-12-31,2010,2020,11,FALSE,2010-01-01,2020-12-31,2010,2020,11,FALSE,NA,NA,NA,NA,0,TRUE,5.573789119720459,210.51273061606017,665.2899119542916,389.67731576421266,NA,1089.9230506302697,1.6382678153477732
CZ-wet,14.770350456237791,49.02465057373047,426,2006,2020,1,2.6,Cfb,WET,188.04153442382812,icos_warmwinter2020,C3,10.64272239702385,0.7763128227711371,2006-04-29,2020-12-31,2007,2020,14,FALSE,2006-04-28,2020-12-31,2007,2020,14,FALSE,2009-03-28,2020-12-31,2010,2020,11,FALSE,14.612222671508789,351.75532872279484,577.4772012966538,480.76108303276993,585.2199863930285,1193.4631945462138,2.066684523417443
DE-Akm,13.68341667,53.86616667,-2,2009,2020,2.596904761904762,9.5,Cfb,WET,900.4317626953125,icos_warmwinter2020,C3,10.614350499231684,1.097103408651574,2012-04-19,2014-09-20,2013,2013,1,FALSE,2012-04-19,2014-09-21,2013,2013,1,FALSE,NA,NA,NA,NA,0,TRUE,6.907629489898682,350.96583922207355,639.4923337823343,512.0597420604021,NA,1125.919537773907,1.76064587219452
DE-Bay,11.866939544677734,50.14194107055664,781,1997,1999,25,55.14705882352941,Cfb,ENF,241.6418304443359,plumber,NA,6.794663488629541,2.1574961083398603,1997-05-23,1999-12-16,1998,1998,1,FALSE,1997-01-06,1999-12-25,1998,1998,1,FALSE,1997-05-17,1999-12-25,1998,1998,1,FALSE,3.807720184326172,336.71078797181445,1018.8485873895614,311.5997249510428,382.887385151279,1059.721560921496,1.0401168279937032
DE-Geb,10.91463,51.09973,161.5,2001,2020,1,3.608692307692307,Cfb,CRO,186.36428833007812,icos_warmwinter2020,C3,11.148483308956552,0.9727387913063134,2001-01-15,2020-12-31,2002,2020,19,FALSE,2001-01-15,2020-12-31,2002,2020,19,FALSE,2001-01-15,2020-12-31,2002,2020,19,FALSE,6.195981502532959,351.49737624228,515.8636022933706,356.41750636367567,453.6142536273599,797.0341940977404,1.5450483239258828
DE-Gri,13.51259,50.95004,385,2004,2020,0.699999988079071,1.5441176207626568,Cfb,GRA,232.6336669921875,icos_warmwinter2020,C3,10.61635743555996,1.4230167323329737,2004-01-05,2020-01-07,2005,2019,15,FALSE,2004-01-05,2020-12-31,2005,2020,16,FALSE,2004-01-05,2020-12-31,2005,2020,16,FALSE,6.188467025756836,352.33049305396924,826.0142970048157,439.83284323988886,630.043666893377,979.6141775662684,1.1859530532563618
DE-Hai,10.452089,51.079407,438.7,2000,2020,33,72.79411764705883,Cfb,DBF,190.60711669921875,icos_warmwinter2020,C3,9.007815062629614,1.1941925000540314,2000-01-01,2020-12-23,2000,2019,20,FALSE,2010-04-01,2020-12-23,2011,2019,9,FALSE,2010-04-01,2020-12-23,2011,2019,9,FALSE,3.927706241607666,344.72515469789505,716.4308596813661,362.04117213302845,452.8158952466782,953.6556143644513,1.331120235089526
DE-HoH,11.22235,52.08656,193,2015,2020,19.4375,42.87683823529412,Cfb,DBF,219.05535888671875,icos_warmwinter2020,C3,10.827203284926554,0.7170186193201866,2015-01-01,2020-12-31,2015,2020,6,FALSE,2015-01-01,2020-12-31,2015,2020,6,FALSE,2015-01-01,2020-12-31,2015,2020,6,FALSE,5.204469203948975,352.32605414589244,467.08366891261903,551.1873745673462,734.2904557756269,1116.993605871744,2.391420810049149
DE-Hte,12.176111,54.210278,4,2009,2018,2.596904761904762,5.059687523841858,Cfb,WET,208.72718811035156,icos_drought2018,C3,10.342489567906847,1.1809613718483212,2014-05-03,2018-12-03,2015,2017,3,FALSE,NA,NA,NA,NA,0,TRUE,NA,NA,NA,NA,0,TRUE,5.46602201461792,212.4527589380741,603.5850002901134,558.4316465011525,NA,798.0636579336295,1.3222059155711954
DE-Hzd,13.48978,50.96381,395,2010,2020,23.183333333333337,51.13970588235294,Dfb,DBF,226.39588928222656,icos_warmwinter2020,C3,10.640105310727003,1.061906516669079,2011-03-01,2015-10-23,2012,2014,3,FALSE,2011-03-01,2015-10-27,2012,2014,3,FALSE,2011-03-01,2015-10-27,2012,2014,3,FALSE,4.984316825866699,352.6365159804171,619.1832744352703,534.2914531932853,679.5407311693288,958.2281244600312,1.5475678430332096
DE-Kli,13.52238,50.89306,478,2004,2020,1.5,3.5,Cfb,CRO,192.32388305664065,icos_warmwinter2020,C3,9.293830083874727,1.4423365132068775,2009-05-15,2020-12-31,2010,2020,11,FALSE,2009-05-15,2020-12-31,2010,2020,11,FALSE,2009-05-15,2020-12-31,2010,2020,11,FALSE,4.292603492736816,346.3939273217145,763.2978256681185,436.67439288341956,534.8035057263478,894.9922713898013,1.172533500415005
DE-Meh,10.65546989440918,51.27531051635742,291,2004,2006,1,3,Cfb,MF,190.88877868652344,plumber,NA,9.924455345017066,1.05543040460022,NA,NA,NA,NA,NA,NA,NA,NA,NA,NA,NA,NA,NA,NA,NA,NA,NA,NA,5.13113260269165,346.9920004606247,520.4333391848194,300.6206164804938,401.0130095058401,798.8714129718705,1.5350119848647332
DE-Obe,13.72128963470459,50.786659240722656,734,2008,2020,19,30,Cfb,ENF,232.6336669921875,icos_warmwinter2020,C3,7.4682890505115855,1.8998477816071004,2008-01-25,2020-12-31,2009,2020,12,FALSE,2008-01-24,2020-12-31,2009,2020,12,FALSE,2008-01-24,2020-12-31,2009,2020,12,FALSE,3.3394079208374023,340.01120906609754,959.1536182544736,384.4596297551851,524.0595673871734,1061.8531297990696,1.1070730585695907
DE-RuR,6.304126,50.621914,514.7,2011,2020,0.4707806229810339,1.038486668340516,Cfb,GRA,246.34127807617188,icos_warmwinter2020,C3,9.268116607798538,1.492628263323465,2011-05-13,2020-12-31,2012,2020,9,FALSE,2011-05-13,2020-12-31,2012,2020,9,FALSE,2011-05-13,2020-12-31,2012,2020,9,FALSE,3.509934425354004,351.2893171787262,855.9990011466334,544.4202956831338,763.6384844866419,928.512632397269,1.0847122848899375
DE-RuS,6.4471445,50.865906,103.2,2011,2020,0.8930252772826303,2.455,Cfb,CRO,216.4841766357422,icos_warmwinter2020,C3,12.728151228504252,0.8494569242159955,2012-04-28,2020-12-31,2013,2020,8,FALSE,2012-04-28,2020-12-31,2013,2020,8,FALSE,2012-04-28,2020-12-31,2013,2020,8,FALSE,8.993896484375,363.31253920197486,542.7748009882055,582.8487520577538,849.0634101801355,973.6444442649256,1.793827647289917
DE-RuW,6.3309627,50.50493,610,2012,2020,15.01866664759318,25.73499988555908,Cfb,ENF,237.6573486328125,icos_warmwinter2020,C3,8.63269658913328,1.810323651362198,2012-01-10,2020-12-31,2013,2020,8,FALSE,2012-01-08,2020-12-31,2013,2020,8,FALSE,NA,NA,NA,NA,0,TRUE,4.657596588134766,348.80817258358,1025.1317793971111,699.1912554562588,NA,NA,NA
DE-Seh,6.449649810791016,50.87062454223633,103,2008,2010,0.800000011920929,2,Cfb,CRO,216.4841766357422,plumber,C3,10.19747185649943,1.3346047171306452,2008-01-08,2010-10-15,2009,2009,1,FALSE,2008-01-08,2010-10-15,2009,2009,1,FALSE,2008-01-08,2010-10-15,2009,2009,1,FALSE,9.368514060974121,347.6595307985942,527.6060019610668,538.9876019861538,618.9337287629493,611.4880273927623,1.1589861091797917
DE-SfN,11.327500343322754,47.80638885498047,590,2013,2014,2,4.300000190734863,Cfb,WET,1114.90185546875,plumber,C3,10.242259695825304,1.318721503746127,2013-01-01,2014-12-31,2013,2014,2,FALSE,2013-01-01,2014-12-31,2013,2014,2,FALSE,2013-01-01,2014-12-31,2013,2014,2,FALSE,7.726890563964844,354.64754316210747,887.5855022655455,454.5222901172441,595.8219369982403,1457.3724659565041,1.6419516342218163
DE-Tha,13.56515,50.96256,380,1996,2020,26.5,42,Cfb,ENF,240.72471618652344,icos_warmwinter2020,C3,9.88516778240855,1.1506722198759782,1996-06-29,2020-12-05,1997,2019,23,FALSE,1996-06-29,2020-12-05,1997,2019,23,FALSE,1996-06-29,2020-12-05,1997,2019,23,FALSE,3.335569381713867,348.02665106058123,806.3429630339324,401.79770768443075,536.2699079745181,1099.809865095462,1.3639479917544466
DE-Wet,11.45753002166748,50.45349884033203,703,2002,2006,22,48.52941176470589,Cfb,ENF,235.99951171875,plumber,NA,6.85568481937118,2.367851440605332,2003-02-13,2006-11-28,2004,2005,2,FALSE,2002-01-02,2006-12-30,2003,2005,3,FALSE,2002-01-02,2006-12-30,2003,2005,3,FALSE,3.3274526596069336,334.4439633131027,1021.6700067439522,334.4822663316811,436.96732542149624,1128.0924918017663,1.1041652239522828
DK-Fou,9.587220191955566,56.48419952392578,51,2005,2005,1,3.5,Cfb,CRO,202.92849731445312,plumber,C3,9.357466119353026,1.2544514110359164,2005-01-27,2005-10-14,2006,2004,-1,TRUE,2005-01-26,2005-10-14,2006,2004,-1,TRUE,2005-01-26,2005-10-14,2006,2004,-1,TRUE,4.922911643981934,347.1057216525078,643.314999064012,99.86190918541027,NA,901.906531397562,1.4019672053500798
DK-Gds,9.3341,56.0737,89,2020,2020,12.444598754835717,19.085428571428572,Dfb,ENF,236.9896697998047,icos_warmwinter2020,C3,8.476463631342966,4.1220771660463225,2020-07-09,2020-12-16,2021,2019,-1,TRUE,2020-07-09,2020-12-31,2021,2020,0,TRUE,NA,NA,NA,NA,0,TRUE,5.849993705749512,349.5469328761101,1056.5610010787168,726.850327044353,NA,NA,NA
DK-Lva,12.08329963684082,55.68330001831055,-2493,2005,2006,0.5,1.1029411764705883,Cfb,GRA,207.0031890869141,plumber,NA,9.014476825954809,2.6703371810163157,2005-01-01,2006-12-31,2005,2006,2,FALSE,2005-01-01,2006-12-31,2005,2006,2,FALSE,2005-01-01,2005-07-12,2005,2004,0,TRUE,4.460951328277588,299.360003054142,1000.6692610397297,371.60449678001345,NA,696.415917973759,0.6959501456556774
DK-Ris,12.097220420837402,55.53028106689453,24,2004,2005,1,2,Cfb,CRO,172.05734252929688,plumber,NA,7.726255016901862,2.928960895859379,2004-01-01,2005-12-31,2004,2005,2,FALSE,2004-01-01,2005-12-31,2004,2005,2,FALSE,NA,NA,NA,NA,0,TRUE,9.434333801269531,335.3682400584221,481.2300164422084,361.3387141988493,NA,943.4264523678887,1.9604480604571475
DK-Sor,11.644645,55.48587,40,1996,2020,25,43.5,Cfb,DBF,166.7314453125,icos_warmwinter2020,C3,9.110810573349305,1.5865937286666238,1996-06-01,2013-12-05,1997,2012,16,FALSE,1996-06-01,2013-12-05,1997,2012,16,FALSE,2001-04-05,2013-12-05,2002,2012,11,FALSE,5.446774959564209,343.2048798513413,823.5904836441641,439.3536862988777,475.19856681252196,832.4823532032741,1.0107964695266582
DK-ZaH,-20.55030059814453,74.47319793701172,38,2000,2013,0.5,1.1029411764705883,ET,GRA,171.7994842529297,plumber,NA,-8.544635166756503,0.5775429801437331,2008-03-26,2008-11-01,2009,2007,-1,TRUE,2008-03-20,2008-11-01,2009,2007,-1,TRUE,NA,NA,NA,NA,0,TRUE,7.3027472496032715,177.81734278323088,147.40378633321956,126.32456746948273,NA,227.10953071508752,1.5407306444739888
ES-Abr,-6.785881,38.701839,279,2015,2020,8,15,Csa,SAV,393.9819641113281,icos_warmwinter2020,C3,20.406639869506616,0.32820458565988375,2015-11-04,2020-12-31,2016,2020,5,FALSE,2015-11-04,2020-12-31,2016,2020,5,FALSE,2015-11-04,2020-12-31,2016,2020,5,FALSE,5.7895283699035645,213.20051419238249,337.94150097065193,335.9576978604326,509.00906654152806,1454.8054071499055,4.304903076335233
ES-Agu,-2.033208,36.940046,195,2006,2020,1.35,4.275,BSk,OSH,166.910888671875,icos_warmwinter2020,C3,18.803082529800644,0.26882918787066384,2006-06-02,2013-12-31,2007,2013,7,FALSE,2006-06-02,2015-09-01,2007,2014,8,FALSE,2006-06-02,2015-09-01,2007,2014,8,FALSE,5.212456703186035,224.68910577694575,267.9601337431154,200.16108053738165,187.30814406296955,1396.0391262818741,5.2098762109896954
ES-Cnd,-3.227659,37.914998,371,2014,2020,2.5,6.400000095367432,Bsk,WSA,488.8213195800781,icos_warmwinter2020,C3,19.642806806297177,0.5813192711060968,2014-11-26,2020-12-31,2015,2020,6,FALSE,2014-11-26,2020-12-31,2015,2020,6,FALSE,2014-11-26,2020-12-31,2015,2020,6,FALSE,5.100535869598389,224.41553129894393,646.6668579724716,363.1854448591091,602.8664184208033,1571.141921957547,2.4296001914859695
ES-ES1,-0.31880998611450195,39.345970153808594,1,1999,2006,7.5,13,Csa,ENF,676.3885131835938,plumber,NA,18.061281364280173,0.5311982120660297,2002-01-12,2004-09-17,2003,2003,1,FALSE,1999-01-01,2006-12-31,1999,2006,8,FALSE,2002-06-04,2005-10-20,2003,2004,2,FALSE,5.094195365905762,383.7952155470848,559.572455182407,564.1011308089785,NA,1814.2881447919876,3.242275648111689
ES-ES2,-0.3152799904346466,39.27555847167969,7,2005,2006,0.5,1.600000023841858,Csa,CRO,673.4434661865234,plumber,NA,18.909522455832523,0.5789435468249144,2005-01-01,2006-12-31,2005,2006,2,FALSE,2005-01-01,2006-12-31,2005,2006,2,FALSE,2005-01-01,2006-12-31,2005,2006,2,FALSE,6.704644203186035,386.2326032221318,578.4692629076175,861.0077305025468,1015.0738720043595,1603.9081969739677,2.772676613640775
ES-LJu,-2.752115,36.926594,1622,2004,2020,0.20000000298023224,0.44117647716227704,Csa,OSH,406.2940979003906,icos_warmwinter2020,C3,12.94772714475872,0.6275822600380149,2007-01-01,2016-12-02,2007,2015,9,FALSE,2004-05-23,2016-12-03,2005,2015,11,FALSE,2004-05-23,2016-12-03,2005,2015,11,FALSE,2.2858798503875732,386.807292026632,603.8315302248213,257.6248424468699,391.3037550675115,1416.9353328988907,2.3465739398724854
ES-LM1,-5.778683,39.94269,261,2014,2020,8,15,Csa,SAV,341.9933166503906,icos_warmwinter2020,C3,19.40564076230384,0.5451370011686327,2014-03-14,2020-12-31,2015,2020,6,FALSE,2014-03-14,2020-12-31,2015,2020,6,FALSE,2014-03-14,2020-12-31,2015,2020,6,FALSE,5.442254066467285,222.56023495537897,642.2880020359019,513.858121797492,770.1198005096248,1651.2984690877981,2.5709626582678964
ES-LM2,-5.778683,39.94269,261,2014,2020,8,15,Csa,SAV,341.9933166503906,icos_warmwinter2020,C3,19.50064917446702,0.5161768257241396,2014-03-14,2020-12-31,2015,2020,6,FALSE,2014-03-14,2020-12-31,2015,2020,6,FALSE,2014-03-14,2020-12-31,2015,2020,6,FALSE,5.442254066467285,222.59482932942257,606.8902875504265,465.9237592586648,695.5056378654845,1647.7821182641374,2.7151235603308668
ES-LMa,-5.773359775543213,39.94269180297851,278,2004,2006,8,15,Csa,SAV,341.9933166503906,plumber,NA,18.046349440696144,0.7168964937249679,2004-02-14,2006-10-31,2005,2005,1,FALSE,2004-01-08,2006-12-31,2005,2006,2,FALSE,2004-01-08,2006-12-31,2005,2006,2,FALSE,5.778726577758789,381.2348748644193,691.3040199476427,515.9696726732801,534.676862110624,1317.4115679515462,1.9056905933388366
ES-LgS,-2.965830087661743,37.09793472290039,2267,2007,2007,0.20000000298023224,0.44117647716227704,Csa,OSH,594.52252197265625,plumber,C3,6.078360936575485,0.41017577057089666,2007-01-01,2007-12-31,2007,2007,1,FALSE,2007-01-01,2007-12-31,2007,2007,1,FALSE,2007-01-01,2007-12-31,2007,2007,1,FALSE,2.255000352859497,362.6732183098793,401.7000015781377,359.46322073291844,432.8756274721138,NA,NA
ES-VDA,1.4485000371932983,42.15217971801758,1787,2004,2004,0.5,1.5,Cfb,GRA,193.555419921875,plumber,NA,8.24793714710161,1.358679009843219,2004-01-05,2004-12-31,2005,2004,0,TRUE,2004-01-01,2004-12-31,2004,2004,1,FALSE,2004-01-01,2004-12-31,2004,2004,1,FALSE,3.1143341064453125,368.3173271417618,926.2328379057411,414.22632485409787,471.78733916661673,772.7037726346994,0.8342435519580814
FI-Hyy,24.29477,61.847410000000004,181,1996,2020,14,32.8,Dfc,ENF,243.5284881591797,icos_warmwinter2020,C3,5.031999628061928,1.237947070764459,1996-06-13,2017-12-19,1997,2016,20,FALSE,1996-04-11,2020-12-31,1997,2020,24,FALSE,2002-12-09,2019-10-26,2003,2018,16,FALSE,5.061100959777832,314.85092946767804,631.3585610339055,316.83600050129473,387.06877481877257,852.7918025021419,1.350725016075841
FI-Kaa,27.29503059387207,69.14069366455078,159,2000,2002,0.800000011920929,1.764705908649108,Dfc,WET,209.4245452880859,plumber,NA,0.0238480956827845,2.0924175851930458,2000-03-05,2002-12-08,2001,2001,1,FALSE,2000-01-01,2002-12-15,2000,2001,2,FALSE,NA,NA,NA,NA,0,TRUE,7.01309871673584,267.74084211389226,485.06588839300116,237.462140294065,NA,521.3537622535077,1.0748101953339297
FI-Ken,24.24301,67.98721,347,2018,2020,12.444598754835717,19.085428571428572,Dfc,ENF,212.5679473876953,icos_warmwinter2020,C3,1.3148620251093484,3.197524693462152,2018-01-01,2020-12-31,2018,2020,3,FALSE,2018-01-01,2020-12-31,2018,2020,3,FALSE,NA,NA,NA,NA,0,TRUE,4.823010444641113,286.0653202285369,644.4933358099661,272.98286922367157,NA,NA,NA
FI-Let,23.95952,60.64183,125,2009,2020,12.444598754835717,25.7,Dfb,ENF,232.94081115722656,icos_warmwinter2020,C3,6.098136982446656,1.3193402858441954,2009-09-03,2020-12-31,2010,2020,11,FALSE,2009-09-03,2020-12-31,2010,2020,11,FALSE,2009-09-03,2020-12-31,2010,2020,11,FALSE,7.8562188148498535,320.8989458555977,579.6568314350424,382.8521951091653,333.1455880418384,737.4346145441122,1.2721917081844152
FI-Lom,24.20918083190918,67.99720001220703,274,2007,2009,0.4000000059604645,0.8823529543245541,Dfc,WET,212.5679473876953,plumber,C3,0.4229734850230186,1.7792960958599782,2007-01-01,2009-12-31,2007,2009,3,FALSE,2007-01-01,2009-12-31,2007,2009,3,FALSE,2007-01-01,2009-12-31,2007,2009,3,FALSE,4.822475433349609,278.32073193291825,535.1223344602658,261.7656442943865,238.70665703439286,333.24065280037485,0.622737328159714
FI-Qvd,22.391607,60.295242,11,2018,2020,1.9984558823529412,5.7072,Dfb,CRO,184.40321350097656,icos_warmwinter2020,C3,7.8945057985255636,1.8426035925360364,2018-05-04,2020-12-31,2019,2020,2,FALSE,2018-05-04,2020-12-31,2019,2020,2,FALSE,NA,NA,NA,NA,0,TRUE,4.87139368057251,163.2258349408706,699.0433334028238,402.975367928227,NA,608.319062677903,0.8702165282325339
FI-Sii,24.19285,61.83265,160,2016,2020,0.8200000047683715,1.8088235399302317,Dfc,WET,1099.7742919921875,icos_warmwinter2020,C3,5.597366287742534,1.3210492783463672,2016-02-25,2020-12-31,2017,2020,4,FALSE,2016-02-25,2020-12-31,2017,2020,4,FALSE,NA,NA,NA,NA,0,TRUE,5.754791259765625,320.16989109516146,601.2984017704548,306.2377561440992,NA,NA,NA
FI-Sod,26.63783073425293,67.36186218261719,180,2008,2014,12.699999809265137,23,Dfc,ENF,218.66461181640625,plumber,C3,1.3713615222292523,1.7220571435669847,2008-01-01,2014-12-31,2008,2014,7,FALSE,2008-01-01,2014-12-31,2008,2014,7,FALSE,2008-01-01,2010-11-08,2008,2009,2,FALSE,6.3535661697387695,281.10957489056244,540.925715947807,295.40901192807496,243.58997642802797,533.4711563910221,0.9862188848912034
FI-Var,29.61,67.7549,395,2016,2020,12.444598754835717,19.085428571428572,Dfc,ENF,222.59884643554688,icos_warmwinter2020,C3,0.29994067883002484,1.6905349904507412,2016-01-01,2020-12-31,2016,2020,5,FALSE,2016-01-01,2020-12-31,2016,2020,5,FALSE,2016-01-01,2020-12-31,2016,2020,5,FALSE,4.545340538024902,280.3373478889465,530.853600615842,160.14543402378797,187.44046222411572,551.8961387347993,1.039639060740185
FR-Aur,1.106103,43.54965,250,2005,2020,0.8930252772826303,2.9244699090980473,Cfb,CRO,225.2197265625,icos_warmwinter2020,C3,15.077776359771756,0.8610262073130054,2005-03-12,2020-12-31,2006,2020,15,FALSE,2005-03-11,2020-12-31,2006,2020,15,FALSE,2005-03-11,2020-12-31,2006,2020,15,FALSE,8.748833656311035,373.5426339060068,652.120751660184,468.57579403495106,616.9192347935236,1106.9503586342873,1.697462250382598
FR-Bil,-0.95594,44.49389,39,2014,2020,15.01866664759318,25.73499988555908,Cfb,ENF,230.1852874755859,icos_warmwinter2020,C3,15.742843480582486,1.1864547629022495,2014-07-12,2020-12-31,2015,2020,6,FALSE,2014-07-11,2020-12-31,2015,2020,6,FALSE,2014-07-11,2020-12-31,2015,2020,6,FALSE,7.354825973510742,217.08764439821243,1045.254001970011,679.344901014372,784.1557376469258,1601.3648294026123,1.532034152832219
FR-EM2,3.02065,49.87211,85,2017,2018,0.8930252772826303,2.9244699090980473,Cfb,CRO,157.40341186523438,icos_drought2018,mix,12.366925323326598,0.8441745255902905,2017-01-01,2018-12-31,2017,2018,2,FALSE,NA,NA,NA,NA,0,TRUE,NA,NA,NA,NA,0,TRUE,6.200962543487549,177.63033713400364,592.8140025827814,508.7174003562451,NA,NA,NA
FR-FBn,5.67865,43.24079,436,2008,2020,14.420000076293944,27.95,Csa,MF,314.62066650390625,icos_warmwinter2020,C3,15.27776997609833,0.6530362720545946,2008-01-11,2020-12-31,2009,2020,12,FALSE,2008-01-11,2020-12-31,2009,2020,12,FALSE,NA,NA,NA,NA,0,TRUE,4.322998046875,378.73219725260367,684.7981560662105,480.1135449856272,NA,1589.0321313358304,2.3204386829309644
FR-Fon,2.780096,48.476357,103,2005,2020,24,37,Cfb,DBF,242.46046447753903,icos_warmwinter2020,C3,12.588923826341864,0.8506656618217598,2005-03-10,2014-02-21,2006,2013,8,FALSE,2005-03-10,2014-02-21,2006,2013,8,FALSE,NA,NA,NA,NA,0,TRUE,4.67879581451416,361.39182863757014,677.4188759719565,639.3285332108147,NA,1228.9254988173607,1.814129399707243
FR-Gri,1.95191,48.84422,125,2004,2020,1,3.4125,Cfb,CRO,252.6805725097656,icos_warmwinter2020,rotation,12.318520876148083,0.9448623817541772,2004-05-12,2018-02-08,2005,2017,13,FALSE,2004-05-11,2018-02-08,2005,2017,13,FALSE,2004-05-11,2018-02-08,2005,2017,13,FALSE,3.90938401222229,360.2752794798683,584.5981204656041,422.9043318547567,584.0711837404718,953.4174856860844,1.6308938607717958
FR-Hes,7.0655598640441895,48.67416000366211,293,1997,2006,13,28.676470588235297,Cfb,DBF,124.46168518066406,plumber,C3,10.43700459356918,1.8110096658794816,2003-01-07,2006-12-29,2004,2005,2,FALSE,2000-04-17,2006-12-31,2001,2006,6,FALSE,2000-04-17,2006-12-31,2001,2006,6,FALSE,3.6763947010040283,NA,960.3314869989936,335.3848798692968,435.66620900095455,1135.5967130214804,1.1825049250131174
FR-LBr,-0.7692999839782715,44.71710968017578,61,2003,2008,20,38,Cfb,ENF,212.5679473876953,plumber,C3,14.446076316316132,1.191663357430779,2003-01-01,2008-12-31,2003,2008,6,FALSE,2003-01-01,2008-12-31,2003,2008,6,FALSE,2003-01-01,2008-12-31,2003,2008,6,FALSE,4.866008758544922,368.443629493316,963.2821722101143,570.6209964754188,767.2757875357532,1424.4386032710872,1.4787345228272157
FR-LGt,2.284102,47.322918,153,2017,2020,2.596904761904762,5.059687523841858,Cfb,WET,278.12701416015625,icos_warmwinter2020,C3,13.17057829335978,0.8952626505788757,2017-01-26,2020-12-13,2018,2019,2,FALSE,2017-01-26,2020-12-17,2018,2019,2,FALSE,NA,NA,NA,NA,0,TRUE,10.613797187805176,364.82526245713234,673.9100033849213,378.6345851326788,NA,NA,NA
FR-Lam,1.2379,43.4965,182,2005,2020,0.8930252772826303,2.9244699090980473,Cfb,CRO,188.0902099609375,icos_warmwinter2020,rotation,14.70298247859959,0.7955658993495897,2005-03-12,2017-02-18,2006,2016,11,FALSE,2005-03-11,2017-02-18,2006,2016,11,FALSE,2005-03-11,2017-02-18,2006,2016,11,FALSE,14.058125495910645,213.17066782340407,684.5700648681919,558.1583483251101,788.6931318730789,1304.2931226622418,1.9052733819340641
FR-Lq1,2.735830068588257,45.64305877685547,1066,2004,2006,0.5,2,Cfb,GRA,259.6422119140625,plumber,NA,8.395389904427052,2.0231386750582536,2004-01-08,2006-12-23,2005,2005,1,FALSE,2004-01-01,2006-12-31,2004,2006,3,FALSE,2004-01-01,2006-01-15,2004,2005,2,FALSE,3.0666134357452393,353.108658015728,975.6126616752225,664.5075727948705,122.40356794966753,360.98590658736504,0.3700094522835701
FR-Lq2,2.737030029296875,45.639190673828125,1081,2004,2006,0.5,2,Cfb,GRA,259.6422119140625,plumber,NA,8.395389904427052,2.0218538031958753,2004-02-06,2006-12-18,2005,2005,1,FALSE,2004-01-01,2006-12-31,2004,2006,3,FALSE,2004-01-01,2006-01-15,2004,2005,2,FALSE,6.372706890106201,353.37750967343646,975.6126616752225,581.1109359244184,113.24655588683814,360.9863069855121,0.37000986269044855
FR-Pue,3.595829963684082,43.74139022827149,270,2000,2014,6.5,11,Csa,EBF,260.3506774902344,plumber,C3,14.781709458294772,1.0012735011078682,2000-07-22,2014-12-31,2001,2014,14,FALSE,2000-07-22,2014-12-31,2001,2014,14,FALSE,2003-05-28,2014-02-06,2004,2013,10,FALSE,2.7245137691497803,373.02816766500473,921.7115367559405,389.3171347608007,556.078398510452,1362.3803233725193,1.4780983735622517
FR-Tou,1.37474,43.572857,158,2018,2020,0.4707806229810339,1.038486668340516,Cfa,GRA,171.27365112304688,icos_warmwinter2020,NA,15.91970166468398,0.7709156082337946,2018-01-01,2020-12-31,2018,2020,3,FALSE,2018-01-01,2020-12-31,2018,2020,3,FALSE,2018-01-01,2020-12-31,2018,2020,3,FALSE,5.975724220275879,376.3428116639455,703.7236701932444,506.77218164033013,719.3956380189288,1318.4980227341355,1.8736019244202378
GF-Guy,-52.9248,5.2787,40,2004,2020,35,58,Af,EBF,530.6138916015625,icos_warmwinter2020,C3,26.482598944706343,1.772622625499132,2004-01-01,2020-12-26,2004,2019,16,FALSE,2004-01-01,2020-12-27,2004,2019,16,FALSE,NA,NA,NA,NA,0,TRUE,7.748089790344238,401.3703470300226,3091.646714554332,1284.5702466919195,NA,2324.7976408192517,0.7519609630282018
GL-Dsk,-53.51413,69.25349,8,2020,2020,5.460000002384186,9.059999990463258,ET,SNO,151.00140380859375,icos_warmwinter2020,C3,-1.866115902889038,0,2020-01-01,2020-12-31,2020,2020,1,FALSE,2020-01-01,2020-12-31,2020,2020,1,FALSE,NA,NA,NA,NA,0,TRUE,NA,261.89240522682667,0,128.89482096281847,NA,NA,NA
HU-Bug,19.601299285888672,46.69110107421875,106,2003,2006,1,4,Cfb,GRA,191.98248291015625,plumber,NA,11.665757230211844,0.8004155865453573,2003-03-31,2005-06-16,2004,2004,1,FALSE,2003-01-01,2006-12-31,2003,2006,4,FALSE,2003-01-01,2006-12-31,2003,2006,4,FALSE,9.530488967895508,347.0144484192133,530.2133305541048,464.8305222418888,532.2546712923752,1112.7178190929617,2.0986228654985055
ID-Pag,113.9000015258789,-2.319999933242798,30,2002,2003,26,41,Af,EBF,269.3514099121094,plumber,NA,27.941945950411856,1.5059433694299476,2003-05-23,2003-12-25,2004,2002,-1,TRUE,2002-01-01,2003-12-31,2002,2003,2,FALSE,NA,NA,NA,NA,0,TRUE,6.140288352966309,401.0237756371498,2072.3175088482094,1265.2924946077237,NA,2389.4986708003544,1.1530562573533598
IE-Ca1,-6.918139934539795,52.85879135131836,72,2004,2006,0.8999999761581421,1.899999976158142,Cfb,CRO,172.05734252929688,plumber,NA,11.463072899719744,1.7907353567495237,2004-01-07,2006-12-16,2005,2005,1,FALSE,2004-01-01,2006-12-31,2004,2006,3,FALSE,2004-01-01,2006-12-31,2004,2006,3,FALSE,6.167691707611084,361.82228805621463,679.8435989579391,105.6126899215164,NA,510.42017700117157,0.7507905903409859
IE-Cra,-7.641774,53.32309,59,2020,2020,2.596904761904762,5.059687523841858,Cfb,WET,176.38888549804688,icos_warmwinter2020,C3,10.182158504233849,2.0481056950865586,2020-01-01,2020-12-31,2020,2020,1,FALSE,2020-01-01,2020-12-31,2020,2020,1,FALSE,2020-01-01,2020-12-31,2020,2020,1,FALSE,5.880727291107178,175.0837659239769,1096.3679991305526,269.69149967890417,331.8837392485065,616.0102868827729,0.5618645266655763
IE-Dri,-8.751810073852539,51.986690521240234,186,2003,2005,0.5,1.1029411764705883,Cfb,GRA,208.4802703857422,plumber,NA,9.695496009523698,3.3077735642036865,2003-03-08,2004-10-21,2004,2003,0,TRUE,2003-01-01,2005-09-06,2003,2004,2,FALSE,2003-01-01,2005-09-06,2003,2004,2,FALSE,6.17643404006958,355.574291408062,1271.8247702858207,420.6039658229065,570.7191806445832,810.255302541252,0.637080926139818
IL-Yat,35.05149841,31.34499931,664,2000,2020,14.08656693689504,22.63080946931385,BSh,ENF,233.7943572998047,icos_warmwinter2020,C3,20.727697933461823,0.17437708614918607,2011-09-23,2020-12-31,2012,2020,9,FALSE,2011-09-22,2020-12-31,2012,2020,9,FALSE,2011-09-22,2020-12-31,2012,2020,9,FALSE,4.1512298583984375,219.47531165679297,237.56819429756726,262.9422283130885,414.6895857366088,1881.2495965553787,7.9187771836115814
IT-Amp,13.605159759521484,41.90409851074219,991,2003,2006,0.5,1.1029411764705883,Cfa,GRA,337.0481262207031,plumber,NA,10.314022384524076,1.1514398801126275,2003-01-01,2006-12-22,2003,2005,3,FALSE,2003-01-01,2006-12-29,2003,2005,3,FALSE,2003-01-01,2006-12-29,2003,2005,3,FALSE,6.141429424285889,361.20683640241623,853.5172602212242,606.7907955388023,645.1948759473202,1297.827947018984,1.5205643839968725
IT-BCi,14.957444,40.52375,10,2004,2020,1,2.2502127659574467,Csa,CRO,408.5556945800781,icos_warmwinter2020,C4,19.200957013707676,1.0286708698288394,2004-05-01,2020-12-31,2005,2020,16,FALSE,2004-05-01,2020-12-31,2005,2020,16,FALSE,2004-05-01,2012-11-23,2005,2011,7,FALSE,6.693691730499268,384.9343049175599,1022.7520074329752,744.6052168322097,903.6268502850608,1349.6580463681485,1.3196337299358434
IT-BFt,10.741966,45.197754,23,2019,2020,19.4375,42.87683823529412,Cfa,DBF,383.9016723632813,icos_warmwinter2020,C3,16.035307272197905,1.0520555898267967,2019-01-01,2020-12-31,2019,2020,2,FALSE,2019-01-01,2020-12-31,2019,2020,2,FALSE,2019-01-01,2020-12-31,2019,2020,2,FALSE,4.17312479019165,185.12025874853137,737.2000019717233,586.5922734208443,963.451728909348,1502.3535207982009,2.0379184980737786
IT-CA1,12.026559829711914,42.380409240722656,200,2012,2013,5.5,12.132352941176473,Csa,DBF,364.29302978515625,plumber,C3,17.391524191236435,0.6745233336438873,2012-01-01,2013-07-05,2012,2012,1,FALSE,2012-01-01,2013-07-05,2012,2012,1,FALSE,2012-01-01,2013-07-05,2012,2012,1,FALSE,5.176156997680664,380.97902578115463,719.8210016345685,708.8235482405278,NA,NA,NA
IT-CA2,12.026040077209473,42.377220153808594,200,2012,2013,0.30000001192092896,0.6617647321785198,Csa,CRO,364.29302978515625,plumber,C3,17.222496502500412,0.6825415631439046,2012-01-01,2013-12-31,2012,2013,2,FALSE,2012-01-01,2013-12-31,2012,2013,2,FALSE,2012-01-01,2013-12-31,2012,2013,2,FALSE,5.427534103393555,379.9926834702492,721.4495016048091,470.3596200129957,608.6450245411484,NA,NA
IT-CA3,12.022199630737305,42.380001068115234,197,2012,2013,3.5,7,Csa,DBF,364.29302978515625,plumber,C3,17.004467182162884,0.6720248356092244,2012-01-01,2013-12-31,2012,2013,2,FALSE,2012-01-01,2013-12-31,2012,2013,2,FALSE,2012-01-01,2013-12-31,2012,2013,2,FALSE,4.888474464416504,378.8810932338238,709.1655013958189,602.7427087560122,691.5959409072666,1142.9210009733401,1.6116421325117756
IT-Col,13.588139533996582,41.849361419677734,1560,2007,2014,13,25.200000762939453,Cfa,DBF,395.8569641113281,plumber,C3,8.697006049884909,1.2271269160542455,2007-01-01,2014-12-31,2007,2014,8,FALSE,2007-01-01,2014-12-31,2007,2014,8,FALSE,2007-01-01,2014-12-31,2007,2014,8,FALSE,4.2830281257629395,364.05050083994865,1169.4147535811567,413.87855041198793,622.9965888729299,1511.6757690868053,1.2926771827168468
IT-Cp2,12.357293,41.704266,19,2012,2020,28.34545456279408,62.52673800616341,Csa,EBF,499.8299560546875,icos_warmwinter2020,C3,18.3738563760156,0.6306525388804037,2012-10-03,2014-10-12,2013,2013,1,FALSE,2012-10-04,2014-10-13,2013,2013,1,FALSE,2012-10-04,2014-10-13,2013,2013,1,FALSE,5.766822338104248,384.6257358723217,637.1761134446501,413.0967256898344,446.92629335547934,1617.6837734154342,2.5388330467538127
IT-Cpz,12.376110076904297,41.70524978637695,68,2001,2008,13,28.676470588235297,Csa,EBF,499.8299560546875,plumber,C3,17.356518049554165,0.6707851875444899,2001-01-01,2008-12-12,2001,2007,7,FALSE,2001-01-01,2008-12-11,2001,2007,7,FALSE,2001-01-01,2008-12-11,2001,2007,7,FALSE,6.865370273590088,381.5571380034089,820.3280026611283,483.56742243044897,555.0647372712889,1780.8547753147313,2.1709057468935264
IT-Isp,8.633580207824707,45.81264114379883,210,2013,2014,19,38,Cfb,DBF,227.1270446777344,plumber,C3,14.4469038759803,2.412072953095964,2013-01-03,2014-12-31,2014,2014,1,FALSE,2013-01-01,2014-12-31,2013,2014,2,FALSE,2013-01-01,2014-12-31,2013,2014,2,FALSE,10.579035758972168,370.38319516181946,2001.0629990259988,521.2062847980793,896.8446550482348,1432.6776373192206,0.715958287178647
IT-LMa,7.582590103149414,45.15258026123047,350,2003,2004,25,55.14705882352941,Cfb,DBF,228.6939697265625,plumber,NA,15.261585870794168,1.2293403807376742,NA,NA,NA,NA,NA,NA,NA,NA,NA,NA,NA,NA,NA,NA,NA,NA,NA,NA,3.3266327381134033,372.43198624253273,856.9803345678338,499.22978679175367,NA,1580.467093620457,1.8442279593468969
IT-Lav,11.281319618225098,45.956199645996094,1353,2003,2020,28,61.76470588235294,Cfb,ENF,239.14027404785156,icos_warmwinter2020,C3,8.32629475264842,1.2715522910276948,2003-01-01,2020-12-31,2003,2020,18,FALSE,2003-01-01,2020-12-31,2003,2020,18,FALSE,2003-01-01,2017-01-23,2003,2016,14,FALSE,3.2772305011749268,359.2823605371846,1122.0554475730466,600.6270482853661,728.3466869862452,1408.284839150665,1.2550938032489563
IT-Lsn,12.750297,45.740482,1,2016,2020,0.20000000298023224,0.44117647716227704,Cfa,OSH,156.6723175048828,icos_warmwinter2020,C3,15.893817267337866,1.1521555329673836,2016-01-01,2020-12-31,2016,2020,5,FALSE,2016-01-01,2020-12-31,2016,2020,5,FALSE,2016-01-01,2020-12-31,2016,2020,5,FALSE,8.034675598144531,370.7877748250961,1069.8481999390356,484.46924647347794,821.230967799339,1428.1945226342605,1.3349506245050886
IT-MBo,11.045831,46.01468,1550,2003,2020,0.30000001192092896,0.6617647321785198,Dfb,GRA,227.96392822265625,icos_warmwinter2020,C3,6.565266128329867,1.9671584244313025,2003-01-07,2013-12-22,2004,2012,9,FALSE,2003-01-07,2013-12-23,2004,2012,9,FALSE,2003-01-07,2013-12-23,2004,2012,9,FALSE,4.349808216094971,351.90642180045444,1065.8792805115183,502.88782528983165,595.3872872272082,819.3921481507798,0.768747608788822
IT-Mal,11.703339576721191,46.11402130126953,1610,2003,2003,0.5,1.1029411764705883,ET,GRA,235.1103057861328,plumber,NA,6.123424562833543,3.649517735940008,2003-01-01,2003-10-19,2003,2002,0,TRUE,2003-01-01,2003-12-04,2003,2002,0,TRUE,2003-01-01,2003-12-04,2003,2002,0,TRUE,1.822266936302185,347.959554374218,1833.286250568562,409.8128173867788,NA,1142.9211882193197,0.6234275677706427
IT-Noe,8.151689529418945,40.606178283691406,25,2004,2014,1.2000000476837158,3,-,CSH,130.3952178955078,plumber,C3,18.102837000464827,0.4840194179970657,2004-04-06,2011-03-08,2005,2010,6,FALSE,2004-04-06,2011-03-08,2005,2010,6,FALSE,2004-04-06,2011-03-08,2005,2010,6,FALSE,3.9198355674743652,384.7801680456509,570.6915466514561,432.0637496524087,449.99561374134413,1690.6304466927704,2.9624241967707037
IT-Non,11.091090202331545,44.690189361572266,14,2002,2002,7,13,Cfa,MF,318.0335693359375,plumber,NA,15.4593498445681,2.719688878787285,2002-01-23,2002-12-31,2003,2002,0,TRUE,2002-01-01,2002-12-31,2002,2002,1,FALSE,2002-01-01,2002-12-31,2002,2002,1,FALSE,6.658273696899414,368.1922205090523,1475.4305848134206,354.2659999911552,428.33197122660897,1252.142552681775,0.8486624620433213
IT-PT1,9.061039924621582,45.200870513916016,60,2003,2004,26,57.352941176470594,Cfa,DBF,273.28887939453125,plumber,C3,14.400276708204842,0.7259080471393591,2003-01-01,2004-10-23,2003,2003,1,FALSE,2003-01-01,2004-10-23,2003,2003,1,FALSE,2003-01-01,2004-10-23,2003,2003,1,FALSE,5.271664142608643,363.8229979276657,643.3280022473866,522.0445924155551,804.1841474892578,1270.3512632183536,1.9746556325553044
IT-Ren,11.43369,46.58686,1735.6,1999,2020,28,61.76470588235294,Dfc,ENF,263.0419006347656,icos_warmwinter2020,C3,5.626812045165006,1.2009153410109945,2000-12-26,2015-01-02,2001,2014,14,FALSE,2000-04-08,2015-01-01,2001,2014,14,FALSE,2000-04-08,2015-01-01,2001,2014,14,FALSE,3.581643581390381,349.3350826881149,962.0529573277074,573.0993765818527,566.9424497207075,1301.4016894373794,1.3527339420610278
IT-Ro1,11.930009841918944,42.40811920166016,235,2002,2006,15,33.08823529411765,Csa,DBF,640.0245361328125,plumber,C3,17.12544968939246,0.8050719225164608,2002-01-01,2006-12-31,2002,2006,5,FALSE,2002-01-01,2006-12-31,2002,2006,5,FALSE,NA,NA,NA,NA,0,TRUE,4.482612609863281,380.92040143013,860.8206035580497,436.4690280041606,NA,1542.8908783590073,1.7923489191380186
IT-Ro2,11.92092990875244,42.3902587890625,160,2002,2008,15,33.08823529411765,Csa,DBF,350.0084533691406,plumber,C3,16.768156575175972,0.7926442648530311,2002-01-01,2008-12-04,2002,2007,6,FALSE,2002-01-01,2008-12-04,2002,2007,6,FALSE,2002-01-01,2008-12-04,2002,2007,6,FALSE,4.975353240966797,379.626384471144,855.7625746991042,465.78285477377233,657.8135338858125,1576.9907265355575,1.8427900134450788
IT-SR2,10.29091,43.73202,4,2013,2020,19,41.911764705882355,Csa,ENF,187.77357482910156,icos_warmwinter2020,C3,16.82028096655243,0.9948802355728084,2013-01-01,2020-12-31,2013,2020,8,FALSE,2013-01-01,2020-12-31,2013,2020,8,FALSE,2013-01-01,2020-12-31,2013,2020,8,FALSE,5.567625999450684,379.34090761840343,1102.0927542111722,763.9414281977852,894.3849826166462,1638.9771915503293,1.4871499565600852
IT-SRo,10.28444004058838,43.72785949707031,6,2003,2012,16,23.5,Csa,ENF,187.77357482910156,plumber,C3,16.614085122019887,0.8330922437653885,2008-12-25,2012-12-31,2009,2012,4,FALSE,2008-12-25,2012-12-31,2009,2012,4,FALSE,2005-09-15,2008-08-20,2006,2007,2,FALSE,5.413545608520508,376.6695156037807,837.2862029043722,565.8993451994646,764.2082985660475,1708.1876666451428,2.040147873833098
IT-Tor,7.578055,45.84444,2168,2008,2020,0.6142857159887042,2.21,Dfc,GRA,218.556884765625,icos_warmwinter2020,C3,4.875666602016547,1.9405567417210323,2008-06-20,2020-12-31,2009,2020,12,FALSE,2008-06-20,2020-12-31,2009,2020,12,FALSE,2008-06-20,2020-12-31,2009,2020,12,FALSE,3.2044947147369385,353.5546781879205,926.9473855506493,524.6111497306262,652.0741326421454,745.1831231410985,0.8039109174448186
JP-SMF,137.07879638671875,35.26169967651367,199,2003,2006,8.100000381469727,19,Cfa,MF,195.4050750732422,plumber,C3,15.751559456398098,1.8193378395732325,2003-01-01,2006-12-31,2003,2006,4,FALSE,2003-01-01,2006-12-31,2003,2006,4,FALSE,NA,NA,NA,NA,0,TRUE,2.9250128269195557,370.1510068327189,1579.863777613775,784.7815764544843,NA,NA,NA
NL-Ca1,4.927000045776367,51.97100067138672,1,2003,2006,0.5,1.1029411764705883,Cfb,GRA,163.46798706054688,plumber,NA,11.522260877972387,1.2707987432162795,2003-01-06,2004-10-17,2004,2003,0,TRUE,2003-01-01,2006-12-31,2003,2006,4,FALSE,2003-01-01,2006-12-31,2003,2006,4,FALSE,7.275374889373779,355.757768958807,688.6770612747937,518.0829801732432,756.2389440980394,924.7001575516074,1.3427195554327263
NL-Hor,5.071300029754639,52.24034881591797,2.200000047683716,2008,2011,1,2.2058823529411766,Cfb,GRA,909.8111572265624,plumber,C3,10.81302191065863,1.6626783663834608,2008-01-01,2011-09-08,2008,2010,3,FALSE,2008-01-01,2008-12-31,2008,2008,1,FALSE,2008-01-01,2008-12-31,2008,2008,1,FALSE,5.894153118133545,348.2923150062561,986.8415020290001,668.6356331381364,283.1042829224512,894.1533068590601,0.9060759048141287
NL-Loo,5.74355,52.166447,33,1996,2018,15.5,26,Cfb,ENF,220.64414978027344,icos_drought2018,C3,11.091574818458993,1.0187348769146172,1996-07-22,2018-09-15,1997,2017,21,FALSE,1996-01-08,2018-09-15,1997,2017,21,FALSE,1996-01-08,2018-09-15,1997,2017,21,FALSE,6.18347692489624,353.48218140653944,803.5725249352911,549.7285721729227,621.6645000075493,1302.7072169981411,1.6211445470998944
PE-QFR,-73.319,-3.8344,104,2018,2019,1.8565277797645992,5.059807703311627,Af,WET,265.29791259765625,ameriflux,NA,25.88252067077816,2.265384846410788,2018-01-01,2019-12-31,2018,2019,2,FALSE,2018-01-01,2019-12-31,2018,2019,2,FALSE,NA,NA,NA,NA,0,TRUE,5.628481864929199,401.51708006858826,2834.2420014205686,1029.2020823663493,NA,1805.3307755538508,0.6369712870845148
PL-wet,16.30940055847168,52.76219940185547,55,2004,2005,1,2.5,Cfb,WET,234.3014373779297,plumber,NA,9.069474729361586,0.9374187016068224,2004-02-03,2005-12-31,2005,2005,1,FALSE,2004-01-01,2005-12-31,2004,2005,2,FALSE,2004-03-13,2005-12-31,2005,2005,1,FALSE,8.654946327209473,338.55264273285866,519.506872364127,451.8528733616088,578.749363260342,1022.4607927438096,1.968137183808336
PT-Esp,-8.601799964904785,38.639400482177734,90,2002,2004,20,33,Csa,EBF,398.8717346191406,plumber,NA,17.819729550839337,0.5628183724865894,NA,NA,NA,NA,NA,NA,NA,NA,NA,NA,NA,NA,NA,NA,NA,NA,NA,NA,5.202613353729248,384.21371074517566,611.1143379450368,571.3193058639702,NA,1922.9617238713254,3.1466480238993757
PT-Mi1,-8.000060081481934,38.54064178466797,230,2005,2005,7.300000190734863,29,Csa,EBF,723.00933837890625,plumber,NA,16.690959141066685,0.21772534712855976,NA,NA,NA,NA,NA,NA,NA,NA,NA,NA,NA,NA,NA,NA,NA,NA,NA,NA,5.609499454498291,380.4299913048744,243.8000024092617,167.79102530368928,NA,1965.0005160015744,8.059887188610324
PT-Mi2,-8.024550437927246,38.47650146484375,193,2005,2006,0.10000000149011612,0.22058823858113852,Csa,GRA,505.8746032714844,plumber,NA,15.030543064777673,0.5650529473996583,2005-01-01,2006-12-31,2005,2006,2,FALSE,2005-01-01,2006-12-31,2005,2006,2,FALSE,2005-01-01,2006-12-31,2005,2006,2,FALSE,5.322659969329834,372.5913682579994,632.8826104642759,380.50813565609775,636.6532250803889,1262.00027979192,1.9940511224761417
RU-Che,161.3414306640625,68.613037109375,6,2003,2004,0.4000000059604645,0.8823529543245541,Dfc,WET,178.8917999267578,plumber,C3,-7.315679901246997,0.2042301900381212,2003-05-10,2003-11-28,2004,2002,-1,TRUE,2003-05-10,2004-09-29,2004,2003,0,TRUE,NA,NA,NA,NA,0,TRUE,7.707398891448975,195.15777633339167,72.64800035774213,178.5399092462112,NA,NA,NA
RU-Fy2,32.901878,56.447603,271,2015,2020,12.444598754835717,19.085428571428572,Dfb,ENF,270.4170227050781,icos_warmwinter2020,C3,6.753964975207188,0.9136023923011728,2015-05-08,2020-12-31,2016,2020,5,FALSE,2015-05-08,2020-12-31,2016,2020,5,FALSE,2015-05-08,2020-12-31,2016,2020,5,FALSE,4.741576194763184,175.69397577146688,582.2128350450498,363.42553168456107,588.3818797802389,1039.2598896330169,1.7850171399134513
RU-Fyo,32.922080993652344,56.46152877807617,265,1998,2020,21,46.32352941176471,Dfb,ENF,284.5625915527344,icos_warmwinter2020,C3,6.1719212515271,0.9039673388054524,1998-07-05,2010-11-28,1999,2009,11,FALSE,1998-06-01,2020-12-31,1999,2020,22,FALSE,1998-06-01,2020-12-31,1999,2020,22,FALSE,6.53300666809082,315.1067668445732,551.6271325385956,387.36037786969035,433.90401928261105,987.9785910713188,1.791026098597848
RU-Zot,89.350799560546875,60.80080032348633,124,2003,2003,12,30,Dfc,WSA,980.288330078125,plumber,NA,-0.8707732998371696,0.6224840473366039,2003-05-29,2003-11-19,2004,2002,-1,TRUE,2003-05-25,2003-11-20,2004,2002,-1,TRUE,2003-05-25,2003-11-20,2004,2002,-1,TRUE,4.385681629180908,241.97868140041828,250.53015197684093,215.02015562115258,NA,823.6230080749453,3.28752049035232
SD-Dem,30.478300094604492,13.282899856567385,500,2005,2009,1.5,2.5,BWh,SAV,128.50904846191406,plumber,C3,29.67294111631785,0.27425147726244736,2007-07-05,2009-12-05,2008,2008,1,FALSE,2007-07-06,2009-12-05,2008,2008,1,FALSE,2007-07-06,2009-12-05,2008,2008,1,FALSE,6.532639980316162,404.4385277986527,284.94000040572695,535.0152981261253,904.7611814545667,1421.7710448273665,4.989720793159621
SE-Deg,19.55654,64.18203,270,2001,2020,0.5,1.7999999523162842,Dfc,WET,266.7126770019531,icos_warmwinter2020,C3,3.021000261461394,1.6116611132970902,2001-01-02,2017-11-07,2002,2016,15,FALSE,2001-01-02,2020-12-31,2002,2020,19,FALSE,2011-11-28,2020-12-31,2012,2020,9,FALSE,7.334924221038818,302.91359470933673,509.03220177907195,264.85857958716895,386.42228227913967,509.9747916752582,1.001851729405118
SE-Htm,13.41897,56.09763,115,2015,2020,15.01866664759318,25.73499988555908,Cfb,ENF,276.3246154785156,icos_warmwinter2020,C3,9.4026300493004,1.5384813629744216,2015-01-01,2020-12-31,2015,2020,6,FALSE,2015-01-01,2020-12-31,2015,2020,6,FALSE,2015-01-01,2020-12-31,2015,2020,6,FALSE,4.670687675476074,346.49200488130253,823.3668338559482,339.76713068469115,459.3515252544749,1047.014267112626,1.2716255064699458
SE-Lnn,13.10176754,58.34062958,72,2014,2018,1.9984558823529412,5.7072,Dfb,CRO,165.4405975341797,icos_drought2018,C3,8.690575471569488,0.8843850277908096,2014-01-01,2018-12-31,2014,2018,5,FALSE,2014-01-01,2018-12-31,2014,2018,5,FALSE,NA,NA,NA,NA,0,TRUE,11.837634086608887,205.90993322730063,484.69960051992985,166.55223656128106,NA,NA,NA
SE-Nor,17.479504,60.0865,45,2014,2020,12.444598754835717,19.085428571428572,Dfb,ENF,263.8726806640625,icos_warmwinter2020,C3,8.148463014709382,1.015320982673793,2014-01-01,2020-12-31,2014,2020,7,FALSE,2014-01-01,2020-12-31,2014,2020,7,FALSE,2014-01-01,2020-12-31,2014,2020,7,FALSE,4.983108043670654,NA,540.836429630854,355.5453466897538,468.5492310707545,997.3190185890284,1.8440307715028459
SE-Ros,19.738,64.1725,166,2014,2020,12.444598754835717,19.085428571428572,Dfc,ENF,266.7126770019531,icos_warmwinter2020,C3,4.359306262540274,1.5939704176528626,2014-07-17,2020-12-31,2015,2020,6,FALSE,2014-07-11,2020-12-26,2015,2019,5,FALSE,2015-06-17,2020-12-26,2016,2019,4,FALSE,3.1801342964172363,177.61462510696478,628.4947149444894,290.62610509519493,293.3148599826842,673.5649687798042,1.071711428534917
SE-Svb,19.7745,64.25611,267,2014,2020,12.444598754835717,19.085428571428572,Dfc,ENF,274.9810791015625,icos_warmwinter2020,C3,3.6690633163899458,1.4298865564117234,2018-01-01,2020-12-31,2018,2020,3,FALSE,2018-01-02,2020-12-31,2019,2020,2,FALSE,2018-01-02,2020-12-31,2019,2020,2,FALSE,7.426940441131592,310.96461694581166,600.2765721005711,290.9939211967152,323.26997545042633,849.7427133468943,1.415585336561373
UK-Gri,-3.7980599403381343,56.60721969604492,343,2000,2001,10,15.399999618530272,Cfb,ENF,243.5284881591797,plumber,NA,6.663816219081108,4.570990495111569,2000-01-14,2000-11-13,2001,1999,-1,TRUE,2000-01-03,2001-12-04,2001,2000,0,TRUE,2000-01-03,2001-12-04,2001,2000,0,TRUE,6.411627769470215,341.42912444472313,1214.9691037981993,426.74270705790366,NA,927.2649103470119,0.7632004035725886
UK-Ham,-0.858299970626831,51.15353012084961,76,2004,2004,22,48.52941176470589,Cfb,DBF,156.73458862304688,plumber,NA,11.802304538918014,1.3892533229236612,NA,NA,NA,NA,NA,NA,NA,NA,NA,NA,NA,NA,NA,NA,NA,NA,NA,NA,5.213935375213623,362.1358312368393,796.7000066408218,243.8574453629252,288.2930920541584,1003.9310516075818,1.260111765080211
UK-PL3,-1.266669988632202,51.45000076293945,104,2005,2006,22,48.52941176470589,Cfb,DBF,154.4820556640625,plumber,NA,15.453350099868352,0.9497399978985772,NA,NA,NA,NA,NA,NA,NA,NA,NA,NA,NA,NA,NA,NA,NA,NA,NA,NA,6.005970478057861,377.2410304248333,555.8790936527655,505.482996419282,NA,974.5841753053945,1.753230489208102
US-A32,-97.8198,36.8193,335,2015,2017,0.4707806229810339,1.038486668340516,Cfa,GRA,175.78843688964844,ameriflux,NA,18.358431219739376,0.7839723818799349,2016-01-24,2017-06-15,2017,2016,0,TRUE,2015-06-17,2017-06-15,2016,2016,1,FALSE,2015-06-17,2017-06-15,2016,2016,1,FALSE,7.005794525146484,376.8512285749118,819.0486675692566,914.3611098263917,1078.2063165044283,1470.1646403460697,1.7949661583714822
US-A74,-97.5489,36.8085,337,2015,2017,0.8930252772826303,2.9244699090980473,Cfa,CRO,170.83566284179688,ameriflux,NA,18.436659155355,0.29518506346055784,2016-01-27,2017-06-04,2017,2016,0,TRUE,2016-01-27,2017-06-05,2017,2016,0,TRUE,2016-01-27,2017-06-05,2017,2016,0,TRUE,6.718222618103027,191.72983676195145,346.6610004485232,811.311198625668,905.8643930516009,NA,NA
US-ALQ,-89.6067,46.0308,515,2015,2023,0.8200000047683715,1.8088235399302317,Dfb,WET,245.2679443359375,ameriflux,NA,6.979557013758278,1.5611206548395862,2018-09-05,2021-12-31,2019,2021,3,FALSE,2018-09-06,2021-12-31,2019,2021,3,FALSE,NA,NA,NA,NA,0,TRUE,9.663902282714844,173.30909211933613,1028.9965714707641,533.5502901273601,NA,1263.5100169035659,1.2279049823242922
US-AR1,-99.42,36.4267,611,2009,2012,0.5,1.1029411764705883,Dsa,GRA,150.4324493408203,ameriflux,C4,17.427974072087196,0.6110208400179795,2009-04-29,2012-04-19,2010,2011,2,FALSE,2009-04-29,2012-04-19,2010,2011,2,FALSE,2009-04-29,2012-04-19,2010,2011,2,FALSE,4.420612335205078,375.02219496667385,500.9705014466448,581.8670079427304,622.4191132411239,1167.0489351040424,2.3295761561488613
US-AR2,-99.5975,36.6358,646,2009,2012,0.25,0.5514705882352942,Dsa,GRA,150.4324493408203,ameriflux,C4,17.586332227687258,0.5055531284808328,2009-04-29,2012-08-03,2010,2011,2,FALSE,2009-04-29,2012-08-03,2010,2011,2,FALSE,2009-04-29,2012-08-03,2010,2011,2,FALSE,6.0273542404174805,375.17156164348125,411.6224996807658,430.8820926521894,407.2112657116956,1139.581354146902,2.76851084435546
US-ARM,-97.4888,36.6058,314,2003,2023,0.19111111111111112,0.4215686274509805,Cfa,CRO,177.5961456298828,ameriflux,mix,17.433263454950577,0.5755658642578712,2003-01-02,2015-02-27,2004,2014,11,FALSE,2003-01-01,2015-02-27,2003,2014,12,FALSE,2005-03-18,2015-02-27,2006,2014,9,FALSE,5.3345842361450195,371.3370487358835,649.4662789716814,668.9556153809807,967.3857302360132,1609.869519774155,2.478757669024953
US-ARb,-98.0402,35.5497,424,2005,2006,0.1,0.22058823529411767,Cfa,GRA,177.5961456298828,ameriflux,C4,18.180275800004154,0.7321699029145688,2005-03-09,2006-11-01,2006,2005,0,TRUE,2005-03-08,2006-11-01,2006,2005,0,TRUE,2005-03-08,2006-11-01,2006,2005,0,TRUE,4.936348915100098,379.3118500113487,725.0160016419327,657.9545924840484,678.9813599604595,NA,NA
US-ARc,-98.04,35.5465,424,2005,2006,0.4,0.8823529411764707,Cfa,GRA,177.5961456298828,ameriflux,C4,17.64511784644486,0.7388490859008521,2005-03-08,2006-10-31,2006,2005,0,TRUE,2005-03-08,2006-10-31,2006,2005,0,TRUE,2005-03-08,2006-10-31,2006,2005,0,TRUE,4.936348915100098,377.8000235259533,776.702000014694,717.203430829137,790.1890688126985,NA,NA
US-Aud,-110.50920104980467,31.590700149536133,1466,2003,2005,0.5,1.1029411764705883,BSk,GRA,116.9391632080078,plumber,NA,19.43744237679546,0.2529072625564331,2003-07-02,2005-12-31,2004,2005,2,FALSE,2003-01-04,2005-12-25,2004,2004,1,FALSE,2003-01-01,2005-12-31,2003,2005,3,FALSE,4.112235069274902,404.1687288284302,337.2097853884043,260.28111168219243,367.26947197135235,925.1213834883803,2.743459483012359
US-BRG,-86.5406,39.2167,180,2016,2020,0.4707806229810339,1.038486668340516,Cfa,GRA,217.98565673828125,ameriflux,NA,14.400563683781051,1.5473790308579138,2017-04-19,2020-11-12,2018,2019,2,FALSE,2017-04-19,2020-11-12,2018,2019,2,FALSE,NA,NA,NA,NA,0,TRUE,9.411404609680176,182.1869040876627,1350.1152009036696,747.7509222354781,NA,NA,NA
US-BZB,-148.3208,64.6955,100,2011,2022,0.8200000047683715,1.8088235399302317,Dfd,WET,206.7255401611328,ameriflux,NA,-0.714968181787494,0.5600569736281624,2014-01-01,2021-12-31,2014,2021,8,FALSE,2014-01-01,2021-12-31,2014,2021,8,FALSE,2014-01-01,2021-12-31,2014,2021,8,FALSE,7.092884540557861,251.80088538202372,263.72918742790205,242.938886373749,394.25612487395995,865.7001681771453,3.2825345446977092
US-BZF,-148.3121,64.7013,95,2011,2022,0.8200000047683715,1.8088235399302317,Dfd,WET,225.3379821777344,ameriflux,NA,-0.44135494265881886,0.6520928818219638,2014-01-27,2021-12-18,2015,2020,6,FALSE,2014-01-25,2021-12-18,2015,2020,6,FALSE,2014-01-25,2021-12-18,2015,2020,6,FALSE,5.993809223175049,254.1938283687288,262.42227814780426,285.6878565416217,394.4010628390295,698.6178498705689,2.6621895625686394
US-BZS,-148.3235,64.6963,100,2010,2021,12.444598754835717,19.085428571428572,Dfd,ENF,206.7255401611328,ameriflux,NA,-1.0511885080877326,0.7480298040446595,2015-02-01,2021-12-02,2016,2020,5,FALSE,2015-01-01,2021-12-03,2015,2020,6,FALSE,2015-01-01,2021-12-03,2015,2020,6,FALSE,4.261328220367432,251.89696469157937,268.2495048713037,251.09032516353935,309.6010214695423,688.0736898895725,2.5650511087417853
US-BZo,-148.33,64.6936,100,2018,2022,0.8200000047683715,1.8088235399302317,Dfd,WET,206.7255401611328,ameriflux,NA,-0.5279517728016909,0.6981173106319803,2018-04-07,2021-11-30,2019,2020,2,FALSE,2018-04-06,2021-11-30,2019,2020,2,FALSE,2018-04-06,2021-11-30,2019,2020,2,FALSE,9.576969146728516,247.47849164903164,287.79900311350565,293.76984827160754,431.4659963007674,646.2511682843061,2.245494811632234
US-Bar,-71.2881,44.0646,272,2004,2022,21,46.32352941176471,Dfb,DBF,267.35455322265625,ameriflux,C3,8.512542506340601,1.4471106381579448,2004-02-24,2018-01-02,2005,2017,13,FALSE,2004-02-01,2018-01-06,2005,2017,13,FALSE,NA,NA,NA,NA,0,TRUE,7.529498100280762,NA,1191.2915755093309,321.7182816890886,NA,1320.3402678568082,1.108326706073031
US-Bi1,-121.4993,38.0992,-2.7,2016,2023,0.33983928571428573,0.7496454831932774,Csa,CRO,581.48529052734375,ameriflux,C3,16.7581543084572,0.3413095125906518,2016-08-13,2021-12-31,2017,2021,5,FALSE,2016-08-13,2021-12-31,2017,2021,5,FALSE,2016-08-13,2021-12-31,2017,2021,5,FALSE,7.407294750213623,377.87568432092667,381.2383342409816,932.8973303060749,1291.4791297939619,1690.3841041010246,4.433930043961762
US-Bi2,-121.5351,38.1091,-5,2017,2023,2.047814814814815,4.517238562091504,Csa,CRO,731.2584228515625,ameriflux,C4,17.58894204892018,0.2890843606582111,2017-04-27,2021-12-31,2018,2021,4,FALSE,2017-04-27,2021-12-31,2018,2021,4,FALSE,2017-04-27,2021-12-31,2018,2021,4,FALSE,7.407179355621338,380.6621727943421,364.6058012078879,767.8318890150621,1145.531400398382,1865.9003609142815,5.117582755767503
US-Bkg,-96.83616638183594,44.34529113769531,495,2005,2006,1,4,Dfa,GRA,151.6610107421875,plumber,NA,8.980185296287669,1.0736783142287154,2005-02-04,2006-12-15,2006,2005,0,TRUE,2005-01-04,2006-12-16,2006,2005,0,TRUE,2005-01-04,2006-12-16,2006,2005,0,TRUE,5.971064567565918,330.706370934844,591.1876418838799,848.6824340183157,951.2254379768124,1221.0979033652343,2.065499710843212
US-Blo,-120.63275146484376,38.895301818847656,1315,2000,2006,4.699999809265137,12.5,Csb,ENF,703.89276123046875,plumber,C3,12.608258202338464,1.1649581721414892,2000-01-01,2006-12-31,2000,2006,7,FALSE,2000-01-01,2006-12-31,2000,2006,7,FALSE,2000-01-01,2006-12-31,2000,2006,7,FALSE,3.8699166774749756,378.2621527484485,1401.233883807262,679.0606610798143,850.2196384972194,1807.4413104122489,1.2898926662416197
US-Bo1,-88.29039764404297,40.00619888305664,217,1997,2006,3,10,Dfa,CRO,192.44219970703125,plumber,NA,12.681620331885894,1.1629752803976154,1997-01-21,2003-12-03,1998,2002,5,FALSE,1997-01-08,2006-12-29,1998,2005,8,FALSE,1997-01-08,2006-12-31,1998,2006,9,FALSE,6.701313495635986,349.95736404955386,800.155089161683,601.5952966782576,698.3177330521587,1291.1478751524362,1.6136220248316648
US-CF1,-117.0821,46.7815,794,2017,2021,1.9984558823529412,5.7072,Dsb,CRO,237.9811248779297,ameriflux,NA,9.575244417800892,0.02904570707544768,2017-06-14,2020-12-31,2018,2020,3,FALSE,2017-05-12,2020-12-31,2018,2020,3,FALSE,NA,NA,NA,NA,0,TRUE,4.335757732391357,349.52920684218407,16.423750154251593,481.715099332014,NA,848.0622569581454,51.636334515147794
US-CF2,-117.0908,46.784,807,2017,2021,1.9984558823529412,5.7072,Dsb,CRO,237.9811248779297,ameriflux,NA,9.738277667914776,0.03387580128499649,2017-05-10,2020-12-31,2018,2020,3,FALSE,2017-05-10,2020-12-31,2018,2020,3,FALSE,NA,NA,NA,NA,0,TRUE,4.3356757164001465,350.6544921696186,20.26850026388161,462.1092644812324,NA,881.4880130927384,43.490539586865566
US-CF3,-117.1261,46.7551,795,2017,2021,1.9984558823529412,5.7072,Dsb,CRO,238.91134643554688,ameriflux,NA,8.01755844723671,0.04705087747391799,2017-06-02,2021-04-08,2018,2020,3,FALSE,2017-06-02,2021-04-07,2018,2020,3,FALSE,NA,NA,NA,NA,0,TRUE,5.865640163421631,344.3277592897415,22.49500033311278,485.8370611980742,NA,803.4693955840619,35.717687649968596
US-CF4,-117.1285,46.7518,795,2017,2021,1.9984558823529412,5.7072,Dsb,CRO,238.91134643554688,ameriflux,NA,9.5323655294923,0.04655332412521725,2017-06-14,2020-02-06,2018,2019,2,FALSE,2017-06-14,2020-02-06,2018,2019,2,FALSE,NA,NA,NA,NA,0,TRUE,4.767077922821045,348.0583093881607,28.550600420544466,606.1299406353971,NA,948.5462142451214,33.2233368221064
US-CRT,-83.3471,41.6285,180,2011,2013,0.42375,0.9347426470588236,Dfa,CRO,178.55430603027344,ameriflux,C3,12.35046645424604,0.9846408986402652,2011-01-01,2013-12-31,2011,2013,3,FALSE,2011-01-01,2013-12-31,2011,2013,3,FALSE,2011-01-01,2013-12-31,2011,2013,3,FALSE,13.722006797790527,347.3318147957325,811.0206785844639,682.8239157462517,841.7691425376455,1618.0804101427755,1.9951160961357166
US-CS1,-89.5379,44.1031,328,2018,2019,1.9984558823529412,5.7072,Dfa,CRO,167.4001922607422,ameriflux,NA,8.451213926673784,1.4012346118663457,2018-06-28,2019-05-02,2019,2018,0,TRUE,2018-06-28,2019-05-02,2019,2018,0,TRUE,NA,NA,NA,NA,0,TRUE,7.073826789855957,323.4353669062257,896.2450046494383,808.1569088064625,NA,NA,NA
US-CS2,-89.5002,44.1467,328,2018,2022,12.444598754835717,19.085428571428572,Dfa,ENF,167.4001922607422,ameriflux,NA,9.92598406074347,1.18637951361602,2019-03-05,2021-09-24,2020,2020,1,FALSE,2019-03-05,2021-09-25,2020,2020,1,FALSE,2019-06-18,2019-10-17,2020,2018,-1,TRUE,4.4703168869018555,338.0956980288029,1025.190000436578,657.6955643742873,NA,1319.813702493466,1.2873844867111681
US-CS3,-89.5727,44.1394,328,2019,2020,1.9984558823529412,5.7072,Dfa,CRO,140.6266326904297,ameriflux,NA,8.736863949363606,1.6956820046505532,2019-05-02,2020-05-05,2020,2019,0,TRUE,2019-05-02,2020-05-05,2020,2019,0,TRUE,NA,NA,NA,NA,0,TRUE,7.360825538635254,328.0046622902155,1184.8195089989586,409.5826043576458,NA,NA,NA
US-CS4,-89.5475,44.1597,328,2020,2021,1.9984558823529412,5.7072,Dfa,CRO,148.46505737304688,ameriflux,NA,9.953275304791788,1.3693417835677593,2020-05-06,2021-02-15,2021,2020,0,TRUE,2020-05-06,2021-02-15,2021,2020,0,TRUE,NA,NA,NA,NA,0,TRUE,5.974180221557617,335.74438694119453,1036.0315056896752,356.240176939781,NA,NA,NA
US-Cop,-109.39,38.09,1520,2001,2007,0.5,1.65,BSk,GRA,112.42068481445312,ameriflux,mix,12.961750460234155,0.13413248885064266,2001-03-28,2003-11-16,2002,2002,1,FALSE,2001-03-28,2003-11-16,2002,2002,1,FALSE,2001-03-28,2003-11-16,2002,2002,1,FALSE,6.021181583404541,375.5534960627556,97.35907163270261,144.7236887720012,249.70524787125598,1234.0841049776336,12.675594418498015
US-DFC,-89.7117,43.3448,264.9,2018,2022,1.9984558823529412,5.7072,Dfb,CRO,184.63092041015625,ameriflux,NA,10.824505145881025,1.038103064474057,2018-10-17,2021-12-31,2019,2021,3,FALSE,2018-10-17,2021-12-31,2019,2021,3,FALSE,2018-10-17,2021-12-31,2019,2021,3,FALSE,4.47544002532959,168.29113422892988,816.3850017993241,551.3829189161484,750.7371940911146,1153.2035223480705,1.412573136211951
US-EDN,-122.114,37.6156,-2,2018,2019,2.596904761904762,5.059687523841858,Csa,WET,140.86151123046875,ameriflux,NA,15.891933542058805,0.20396713988619103,2018-04-01,2019-11-09,2019,2018,0,TRUE,2018-04-01,2019-11-09,2019,2018,0,TRUE,NA,NA,NA,NA,0,TRUE,6.7140278816223145,380.15860864520073,290.8030006056834,1048.933863677512,NA,NA,NA
US-EML,-149.2536,63.8784,662,2008,2020,1.3583333338300387,2.9963235305074387,ET,OSH,179.97842407226562,ameriflux,NA,0.09100942665905548,1.2682792716156202,2010-04-22,2015-08-30,2011,2014,4,FALSE,2010-04-22,2015-09-01,2011,2014,4,FALSE,NA,NA,NA,NA,0,TRUE,6.006224632263184,161.5237465535219,620.5347698445008,272.4248053854793,NA,861.463716684726,1.3882601887088444
US-FPe,-105.10189819335938,48.30770111083984,638,2000,2006,0.30000001192092896,0.6617647321785198,BSk,GRA,142.2996063232422,plumber,NA,7.422961303593455,0.609445669851703,2003-12-31,2006-12-26,2004,2005,2,FALSE,2000-01-01,2006-12-31,2000,2006,7,FALSE,2000-01-01,2006-12-31,2000,2006,7,FALSE,4.430841445922852,320.0041092719351,394.6657643199128,309.2277920007573,361.8632248713,694.1967395635027,1.7589484630361618
US-Fcr,-148.9348,65.3968,265,2011,2014,1.75,3.860294117647059,Dwc,OSH,215.51193237304688,ameriflux,NA,-2.0720793765375647,0.7025784148178692,2013-01-23,2014-09-08,2014,2013,0,TRUE,2013-01-23,2014-09-08,2014,2013,0,TRUE,2013-01-23,2014-09-08,2014,2013,0,TRUE,5.83192253112793,155.37050026841462,253.4157514630209,239.53575006982513,241.8083320510813,496.8498631287081,1.9606116046863398
US-Fmf,-111.7273,35.1426,2160,2005,2010,15.01866664759318,25.73499988555908,Csb,ENF,331.1567687988281,ameriflux,C3,11.421460443042092,0.5052709347688249,2005-07-29,2010-12-31,2006,2010,5,FALSE,2005-07-29,2010-12-31,2006,2010,5,FALSE,2005-07-29,2010-12-31,2006,2010,5,FALSE,5.634499549865723,213.3922802383701,587.5863349563475,495.9795745979205,754.3471558686997,1803.990702900927,3.070171301779759
US-Fuf,-111.762,35.089,2180,2005,2010,15.01866664759318,25.73499988555908,Csb,ENF,332.4958190917969,ameriflux,C3,10.85357190072828,0.5422274333634399,2005-09-06,2010-12-24,2006,2009,4,FALSE,2005-09-06,2010-12-24,2006,2009,4,FALSE,2005-09-06,2010-12-24,2006,2009,4,FALSE,5.555109977722168,211.89266564448675,619.8301656764215,457.60947397979015,652.9970009011465,1726.1918424288478,2.784943260296233
US-GLE,-106.2399,41.3665,3197,1999,2020,9.725,22.65,Dfc,ENF,215.2929229736328,ameriflux,C3,1.1413898428602725,1.658192002537414,2005-03-29,2020-10-01,2006,2019,14,FALSE,2005-01-01,2020-10-01,2005,2019,15,FALSE,2005-01-01,2020-10-01,2005,2019,15,FALSE,4.2034592628479,338.52779548056424,1350.919711252609,564.1172578112856,739.2413746590654,1403.1515766779403,1.0386639302027065
US-Goo,-89.87349700927734,34.25469970703125,87,2004,2006,0.30000001192092896,0.6617647321785198,Cfa,GRA,218.48974609375,plumber,NA,18.737177053256296,1.7562769508245135,2004-03-06,2006-12-25,2005,2005,1,FALSE,2004-01-01,2006-12-26,2004,2005,2,FALSE,2004-01-01,2006-11-16,2004,2005,2,FALSE,7.890556335449219,378.6365521748861,1418.8194215597832,629.333598279552,773.627123153936,1423.7003076013184,1.003440103770337
US-HB1,-79.1957,33.3455,0.1,2019,2022,2.596904761904762,5.059687523841858,Cfa,WET,234.47149658203125,ameriflux,NA,23.32127878837172,0.8902524365526867,2019-01-05,2019-09-01,2020,2018,-1,TRUE,2019-01-05,2019-09-01,2020,2018,-1,TRUE,NA,NA,NA,NA,0,TRUE,7.194637775421143,391.6965510845184,1258.9069995369532,873.1384509719877,NA,NA,NA
US-HWB,-77.8488,40.8608,378,2015,2018,19.149629630424357,31.877058812309713,Dfb,CVM,214.00485229492188,ameriflux,NA,12.13216375762176,0.9179928887538517,2015-07-16,2018-08-25,2016,2017,2,FALSE,2015-07-16,2018-08-25,2016,2017,2,FALSE,NA,NA,NA,NA,0,TRUE,5.772336483001709,350.7541110217571,1119.7075129872617,608.9333027882489,NA,1936.1654625845138,1.7291707344349492
US-Ha1,-72.1715,42.5378,340,1991,2023,25.4,56.02941176470589,Dfb,DBF,264.8782958984375,ameriflux,C3,9.164803342450528,0.7716479243072701,1991-10-27,2020-12-31,1992,2020,29,FALSE,NA,NA,NA,NA,0,TRUE,NA,NA,NA,NA,0,TRUE,6.9653520584106445,335.9657043993473,600.8687832534798,436.5691439856646,NA,1258.0203682436595,2.09366903940649
US-Hn2,-119.4641,46.6889,117.5,2015,2018,1.1833333240614996,2.610294097194485,Bsk,GRA,148.46505737304688,ameriflux,NA,14.37111142291979,0.06766553671984997,2017-04-20,2018-12-31,2018,2018,1,FALSE,2015-12-05,2018-12-31,2016,2018,3,FALSE,2015-12-05,2018-12-31,2016,2018,3,FALSE,7.333188533782959,206.6610344313085,50.83475095023291,237.32799035544983,321.5218167168836,NA,NA
US-Hn3,-119.4614,46.6878,120.9,2017,2018,1.35,4.275,Bsk,OSH,148.46505737304688,ameriflux,NA,14.726440210645848,0.01704031724467555,2017-11-16,2018-12-31,2018,2018,1,FALSE,2017-11-16,2018-12-31,2018,2018,1,FALSE,2017-11-16,2018-12-31,2018,2018,1,FALSE,6.4169745445251465,359.1859324872494,17.46500009620036,156.1087473068166,214.65006194118496,NA,NA
US-Ho1,-68.74019622802734,45.2041015625,60,1996,2004,20,44.117647058823536,Dfb,ENF,227.1626434326172,plumber,C3,7.799433481099386,1.481980050583279,NA,NA,NA,NA,NA,NA,NA,NA,NA,NA,NA,NA,NA,NA,NA,NA,NA,NA,5.048520565032959,320.4547444482644,817.6298272272645,367.78373225470256,376.65159505411424,1237.2792373029663,1.5132511022730315
US-Ho2,-68.747,45.2091,61,1999,2020,12.444598754835717,19.085428571428572,Dfb,ENF,227.1626434326172,ameriflux,NA,8.263506113951989,0.9985782046027136,2008-01-01,2018-12-10,2008,2017,10,FALSE,1999-01-12,2018-12-10,2000,2017,18,FALSE,NA,NA,NA,NA,0,TRUE,4.711903095245361,324.1823964484713,807.53695748588,404.88923273158196,NA,1322.212075812348,1.6373393979748194
US-ICh,-149.2958,68.6068,940,2007,2021,1.3583333338300387,2.9963235305074387,ET,OSH,163.27200317382812,ameriflux,NA,-6.336985694701234,1.5210269707792892,2009-04-06,2021-12-31,2010,2021,12,FALSE,2009-04-05,2021-12-30,2010,2020,11,FALSE,2009-04-05,2021-12-31,2010,2021,12,FALSE,4.241943836212158,126.43442956755558,237.03373751675826,146.28851586534634,183.42293634154595,148.0777150999111,0.624711556469644
US-ICs,-149.311,68.6058,920,2007,2022,1.8565277797645992,5.059807703311627,ET,WET,163.27200317382812,ameriflux,NA,-7.088999637987244,1.3020691840941916,2013-12-25,2020-12-31,2014,2020,7,FALSE,2011-01-18,2020-12-31,2012,2020,9,FALSE,2011-01-18,2020-12-31,2012,2020,9,FALSE,5.199160099029541,217.2062073610723,223.82271878116256,154.6192338388392,149.65762428382456,191.59336617550906,0.8560049990404907
US-ICt,-149.3041,68.6063,930,2007,2022,1.3583333338300387,2.9963235305074387,ET,OSH,163.27200317382812,ameriflux,NA,-4.031429109262719,0.9893838687678852,2016-01-01,2021-12-28,2016,2020,5,FALSE,2015-04-11,2021-12-23,2016,2020,5,FALSE,2015-04-11,2021-12-23,2016,2020,5,FALSE,4.874466419219971,248.48764049162463,308.42993572863867,179.27218477794588,198.04811113016044,459.85882057331736,1.4909668851920654
US-Jo1,-106.635,32.582,1188,2010,2020,1.35,4.275,Bwk,OSH,129.5244598388672,ameriflux,NA,19.6546484678807,0.20771897328763472,2010-01-07,2017-03-09,2011,2016,6,FALSE,2010-01-07,2017-03-09,2011,2016,6,FALSE,2010-01-07,2017-03-09,2011,2016,6,FALSE,6.052644729614258,240.5072106773203,220.91618490626902,285.25695427592603,420.71826523332396,1480.130971571004,6.699966198488347
US-Jo2,-106.6032,32.5849,1469,2010,2020,1.35,4.275,Bwk,OSH,129.5244598388672,ameriflux,NA,19.539609677780753,0.22243170902528028,2010-09-04,2020-12-31,2011,2020,10,FALSE,2010-09-04,2020-12-31,2011,2020,10,FALSE,2010-09-04,2020-12-31,2011,2020,10,FALSE,4.26084041595459,401.2255135178566,292.3985456645296,287.40243046135026,421.61399798904716,1840.51527839204,6.29454320372603
US-KFS,-95.1907,39.0561,310,2007,2019,0.4707806229810339,1.038486668340516,Cfa,GRA,201.5957489013672,ameriflux,mix,14.454370469446214,0.6233345368945573,2008-01-01,2019-12-31,2008,2019,12,FALSE,2007-06-16,2014-06-18,2008,2013,6,FALSE,2007-06-16,2019-12-31,2008,2019,12,FALSE,4.916028022766113,358.24390130776624,607.2111551405163,575.6516340079465,861.5511153868191,1364.146808419183,2.2465773180723305
US-KLS,-97.5684,38.7745,373,2012,2019,0.4707806229810339,1.038486668340516,Cfa,GRA,180.57630920410156,ameriflux,NA,15.215348923889149,0.3791352200516332,2012-04-28,2019-12-31,2013,2019,7,FALSE,2012-04-28,2019-12-31,2013,2019,7,FALSE,2012-04-28,2019-12-31,2013,2019,7,FALSE,7.590382099151611,363.28862262517214,365.5292534318221,611.5538010563794,786.3651929737736,1104.4838794417108,3.0216018802109836
US-KS2,-80.6715316772461,28.608577728271484,3,2003,2006,2,3.5,Cfa,CSH,216.8016662597656,plumber,C3,22.292847246918775,0.767812583486659,2003-03-28,2006-12-31,2004,2006,3,FALSE,2003-01-01,2006-12-31,2003,2006,4,FALSE,2003-01-01,2006-12-31,2003,2006,4,FALSE,8.15290355682373,394.18824653327465,1146.409751523879,907.3434922758265,1050.8375549107368,2069.8533216215656,1.805509172327074
US-Los,-89.97920227050781,46.08269882202149,480,2000,2008,2,4.411764705882353,Dfb,WET,240.2236328125,plumber,C3,6.798510014598412,1.21639718359462,2000-09-06,2007-01-02,2001,2006,6,FALSE,2000-09-06,2008-12-31,2001,2008,8,FALSE,2000-09-06,2008-12-31,2001,2008,8,FALSE,6.651185512542725,317.6210600104597,765.6105591941014,326.5871252936772,473.05254185507835,1004.9540653800458,1.3126178228757486
US-MMS,-86.4131,39.3232,275,1999,2023,26,46,Cfa,DBF,301.7260437011719,ameriflux,C3,13.139643062772144,0.5706825777073553,1999-01-01,2020-12-31,1999,2020,22,FALSE,1999-01-01,2020-12-31,1999,2020,22,FALSE,1999-01-01,2017-02-04,1999,2016,18,FALSE,4.10130500793457,354.1701573621143,549.29531954018,498.694661026787,767.4649764900045,1471.4987574920299,2.6788845729175965
US-MOz,-92.2,38.7441,219.4,2004,2021,24,52.94117647058824,Cfa,DBF,282.50311279296875,ameriflux,NA,14.628430042184988,0.8268306255843358,2006-05-11,2019-12-31,2007,2019,13,FALSE,2006-05-11,2019-12-31,2007,2019,13,FALSE,2006-05-11,2019-12-31,2007,2019,13,FALSE,4.453941822052002,358.3734391015023,908.5206276222821,590.4423328314695,898.0675929689888,1636.7269360182995,1.8015297465527327
US-Me1,-121.5,44.5794,896,2004,2005,7.2,15.882352941176473,Csb,ENF,163.21633911132812,ameriflux,C3,11.25442219955282,0.1789981174558513,2004-06-15,2005-05-16,2005,2004,0,TRUE,2004-05-17,2005-05-16,2005,2004,0,TRUE,2004-05-17,2005-05-16,2005,2004,0,TRUE,3.8269259929656982,363.45838236808777,155.062500185528,499.82947572589694,603.785706402488,NA,NA
US-Me2,-121.5589,44.4526,1253,2002,2023,15.663333333333332,33,Csb,ENF,267.2327575683594,ameriflux,C3,8.960775901756318,0.5110593657317366,2004-02-08,2011-11-09,2005,2010,6,FALSE,2002-01-01,2020-12-31,2002,2020,19,FALSE,2002-01-01,2020-12-31,2002,2020,19,FALSE,3.8291471004486084,356.54910489603094,489.3421679599191,512.2135708661845,663.7989561714411,1526.036737163922,3.1185473827567547
US-Me3,-121.6078,44.3154,1005,2004,2009,3.11,12,Csb,ENF,252.30335998535156,ameriflux,C3,11.005801320015042,0.40619798365477405,2006-06-15,2009-10-02,2007,2008,2,FALSE,2004-01-07,2009-10-02,2005,2008,4,FALSE,NA,NA,NA,NA,0,TRUE,5.411944389343262,362.6626970569293,379.53833425351036,364.92561755251086,NA,1525.7378116214709,4.019983421759878
US-Me4,-121.62239837646484,44.49919891357422,922,1996,2000,20,47,Csb,ENF,265.85003662109375,plumber,C3,9.71046738765714,0.9016826477266394,2000-02-17,2000-12-03,2001,1999,-1,TRUE,2000-01-01,2000-12-17,2000,1999,0,TRUE,2000-01-01,2000-12-17,2000,1999,0,TRUE,3.987421751022339,356.5324669480324,641.4684045070953,361.34355120871334,627.0573953798961,1638.0270444885216,2.5535584184340028
US-Me6,-121.60780334472656,44.323299407958984,998,2011,2014,5.199999809265137,14,Csb,ENF,252.30335998535156,plumber,C3,10.266700804912537,0.4237901414384095,2011-01-01,2014-12-31,2011,2014,4,FALSE,2011-01-01,2014-12-31,2011,2014,4,FALSE,2012-09-26,2012-12-31,2013,2012,0,TRUE,12.541333198547363,358.9263883382082,416.7119983181096,379.5533527105015,NA,1553.0184274021985,3.726838760751629
