sitename,lon,lat,elv,year_start,year_end,canopy_height,reference_height,koeppen_code,igbp_land_use,whc,product,c3c4,mat,p_over_pet,start_gpp,end_gpp,year_start_gpp,year_end_gpp,nyears_gpp,drop_gpp,start_le,end_le,year_start_le,year_end_le,nyears_le,drop_le,start_lecorr,end_lecorr,year_start_lecorr,year_end_lecorr,nyears_lecorr,drop_lecorr,cti,cond_mean_ann,aet,aet_cond,prec_cond,pet_over_prec_cond,prec,aet_corr,pet,pet_over_prec,aet_over_prec,aet_over_prec_cond
AR-SLu,-66.45980072021484,-33.46480178833008,500,2010,2010,4.5,11,Bsk,MF,172.03424072265625,plumber,C3,21.666548133124437,0.24671177056566407,2010-01-01,2010-12-31,2010,2010,1,FALSE,2010-01-01,2010-12-31,2010,2010,1,FALSE,2010-01-01,2010-12-31,2010,2010,1,FALSE,7.588640689849853,397.5573440790176,356.5304663374613,665.3461981967043,749.2573447869509,2.3470024880609377,351.7000007079332,267.78885411768675,1758.5088524129055,5.000025160287807,0.761412719871076,0.35740571110962116
AR-TF1,-66.7335,-54.9733,40,2016,2018,1.8565277797645992,5.059807703311627,ET,WET,159.9023406982422,ameriflux,NA,7.175663436937179,2.2078710543178626,2016-01-31,2018-05-18,2017,2017,1,FALSE,2016-01-31,2018-05-18,2017,2017,1,FALSE,NA,NA,NA,NA,0,TRUE,4.1035685539245605,344.5018035173416,250.3443291986229,NA,1155.9144708864733,NA,811.4126673691317,NA,NA,NA,NA,NA
AT-Neu,11.317500114440918,47.116668701171875,970,2002,2012,1,3,Dfc,GRA,239.9513397216797,plumber,C3,8.564706393905437,1.0479538121859018,2002-01-01,2012-12-31,2002,2012,11,FALSE,2002-01-01,2012-12-31,2002,2012,11,FALSE,2002-01-01,2012-12-31,2002,2012,11,FALSE,11.392807960510254,348.1183804652908,456.5044892676739,994.648390783236,1016.6730207388896,0.759327157668487,668.5546402735988,646.5300103179452,771.9874351158958,1.1547110566758885,0.9670563501785878,0.6359271832039619
AU-ASM,133.24899291992188,-22.28300094604492,606,2011,2017,6.5,11.600000381469728,BSh,SAV,149.10943603515625,plumber,C3,25.484468085146503,0.21685505385045128,2011-10-15,2017-12-13,2012,2016,5,FALSE,2011-01-09,2017-12-13,2012,2016,5,FALSE,2011-01-09,2017-12-13,2012,2016,5,FALSE,7.487943172454834,404.7295150245939,305.4455926995218,796.1295050711528,767.1500506713887,2.7429300783815496,362.42053564679475,391.39999004655886,2104.238948618482,5.806069859874652,1.0799608508608538,0.5102000445727877
AU-Cow,145.42715454101562,-16.238189697265625,86,2010,2015,22,35,Am,EBF,822.7951863606771,plumber,NA,24.830324072094392,3.972014637508069,2010-01-01,2015-12-20,2010,2014,5,FALSE,2010-01-01,2015-12-30,2010,2014,5,FALSE,2011-06-21,2015-12-30,2012,2014,3,FALSE,3.7225048542022705,401.7610911726952,1177.3897600507175,1756.673070968183,4461.433905153855,0.3317999561943662,4059.67281398116,1354.911979795488,1480.3035742941092,0.36463617688501215,0.33374905857666387,0.30369428497647166
AU-Cpr,140.58912658691406,-34.00205993652344,76,2011,2017,4,8.823529411764707,BSk,SAV,141.81759643554688,plumber,C3,20.71200956676386,0.1879807845459581,2014-04-24,2017-12-31,2015,2017,3,FALSE,2014-04-23,2017-12-31,2015,2017,3,FALSE,2014-04-23,2017-12-31,2015,2017,3,FALSE,6.335378646850586,392.06508210727145,290.32847886995535,644.2567698407158,674.9507972217647,2.3121346157582545,282.8857151144932,252.19168773344444,1560.5771021900723,5.516634523445113,0.8914967220291562,0.3736445512347225
AU-Ctr,145.4468536376953,-16.10327911376953,66,2010,2017,25,45,Am,EBF,943.68280029296875,plumber,NA,24.729997253429623,3.8339314013564816,2010-01-01,2013-12-22,2010,2012,3,FALSE,2010-01-01,2013-12-22,2010,2012,3,FALSE,2015-12-18,2017-12-01,2016,2016,1,FALSE,6.208099365234375,401.4958075731993,1356.5598606833328,NA,4631.619850442527,0.35102644883034373,4230.124042869328,NA,1625.821068432968,0.3843435918087546,NA,NA
AU-Cum,150.72247314453125,-33.61329650878906,200,2013,2018,23,50.735294117647065,Cfa,EBF,179.55108642578125,plumber,C3,20.29878565646468,0.6585923554871822,2013-01-01,2018-12-31,2013,2018,6,FALSE,2013-01-01,2018-12-31,2013,2018,6,FALSE,2013-11-02,2018-12-31,2014,2018,5,FALSE,4.947836399078369,395.5773022274177,796.2163062917007,1490.135767477121,1224.2773058832488,1.6444483172603406,828.7000036558311,1094.5584652497032,2013.2607555197317,2.4294204738001457,1.3208138776650546,0.8940445599945508
AU-DaP,131.31809997558594,-14.063300132751465,116,2009,2012,0.30000001192092896,0.6617647321785198,Aw,GRA,597.201416015625,plumber,C3,28.68106660780456,0.7730160103050042,2009-01-04,2011-12-14,2010,2010,1,FALSE,2009-01-01,2011-12-14,2009,2010,2,FALSE,2009-01-01,2011-12-14,2009,2010,2,FALSE,5.7205095291137695,402.4561997652054,774.3643955483401,1270.8817489848286,1770.0947031973412,1.152781582296817,1367.6385034321358,868.4255492196232,2040.5325727670456,1.492011644631428,0.6349817930983074,0.49060965362529857
AU-DaS,131.38800048828125,-14.159282684326172,108,2010,2017,16.399999618530273,36.17646974675796,Aw,SAV,732.69219970703125,plumber,C3,28.232389159163887,0.8141579924960851,2011-04-09,2017-12-31,2012,2017,6,FALSE,2011-04-08,2017-12-31,2012,2017,6,FALSE,2012-12-18,2017-12-31,2013,2017,5,FALSE,5.971405982971191,402.765816450119,989.2856443770532,1499.04377771292,1759.0578102604923,1.3014190240383285,1356.2919938103732,1096.277961262801,2289.271298656209,1.6878897089296527,0.8082905202314971,0.623218836168015
AU-Dry,132.37060546875,-15.25879955291748,191,2011,2015,12.300000190734863,27.13235336191514,Aw,SAV,672.0255126953125,plumber,C3,28.526456097076615,0.5528027757372732,2011-06-26,2015-12-23,2012,2014,3,FALSE,2011-02-03,2015-12-26,2012,2014,3,FALSE,2011-02-03,2015-12-26,2012,2014,3,FALSE,6.410485744476318,403.0035420417786,829.3007324187262,1433.872501444288,1380.9155427298626,1.6137638048999192,977.912000688084,1030.8689594025095,2228.47152048118,2.2788057810039866,1.0541530921771731,0.7465112293287948
AU-Emr,148.47459411621094,-23.858699798583984,177,2012,2013,2,5.599999904632568,Bsh,GRA,130.61582946777344,plumber,mix,24.1386404701004,0.4157905478766846,2012-01-01,2013-12-31,2012,2013,2,FALSE,2012-01-01,2013-12-31,2012,2013,2,FALSE,2012-01-01,2013-12-31,2012,2013,2,FALSE,5.533915042877197,400.8846258223057,408.5966356258815,1064.064860666265,1027.9346274698182,1.9448129054642767,627.0500016475125,663.1802348439594,1999.140529476916,3.188167648870696,1.0576193813914652,0.6451579868228843
AU-GWW,120.6540985107422,-30.19129943847656,504,2013,2017,18,35,BWh,SAV,144.88778686523438,plumber,C3,20.939712269277457,0.19247785274394896,2013-01-01,2017-12-31,2013,2017,5,FALSE,2013-01-01,2017-12-31,2013,2017,5,FALSE,2013-01-01,2017-12-31,2013,2017,5,FALSE,10.991066932678224,398.2017516136169,262.89354233222866,728.6168852730723,702.1217520824052,2.616067913358274,303.92000046878826,330.41513365945536,1836.7981868936731,6.043689734339505,1.0871779848308736,0.4705952104168336
AU-Gin,115.6500015258789,-31.375,51,2012,2017,7,15,Csa,WSA,439.7334899902344,plumber,C3,20.979032071364404,0.4304866400038171,2012-01-01,2017-12-31,2012,2017,6,FALSE,2012-01-01,2017-12-31,2012,2017,6,FALSE,2012-01-01,2017-12-31,2012,2017,6,FALSE,6.465897560119629,394.7250570456187,591.7857789946096,1140.4968564106223,1020.7518579238265,2.1255764542086184,626.0268008782077,745.7717993650035,2169.6861147925865,3.4658038789216223,1.1912777509186734,0.7306102786644711
AU-How,131.14999389648438,-12.495200157165527,41,2003,2017,16,35.294117647058826,Aw,WSA,558.27484130859375,plumber,C3,28.609480236152645,1.013849440541453,2008-02-02,2017-12-31,2009,2017,9,FALSE,2008-02-02,2017-12-31,2009,2017,9,FALSE,2008-02-02,2017-12-31,2009,2017,9,FALSE,5.722897529602051,402.0751044988632,1209.3907818271418,1890.8153472300146,2051.123471541587,1.195884973994624,1649.0483670427238,1488.7402427311515,2452.907739424274,1.4874686446117584,0.9027874939780836,0.7258169795172016
AU-Lit,130.79449462890625,-13.17903995513916,200,2016,2017,20,31,Aw,WSA,543.70849609375,plumber,NA,28.02808827962722,1.017242860359615,2016-01-01,2017-12-31,2016,2017,2,FALSE,2016-01-01,2017-12-31,2016,2017,2,FALSE,2016-01-01,2017-12-31,2016,2017,2,FALSE,6.415281772613525,404.1336712241173,1309.9553977921305,1881.2408355737089,1967.333667943167,1.1349129827866207,1563.1999967190498,1477.1071643495916,2232.752521221923,1.428321728446888,0.9449252606511287,0.7508167975867034
AU-Otw,142.81680297851562,-38.53234100341797,54,2009,2010,0.10000000149011612,0.22058823858113852,Cfb,GRA,359.4934997558594,plumber,NA,14.075084576590957,0.35278287264874947,2009-01-01,2010-12-31,2009,2010,2,FALSE,2009-01-01,2010-12-31,2009,2010,2,FALSE,2009-01-01,2010-12-31,2009,2010,2,FALSE,4.628756999969482,374.9653621315956,671.9298601654871,1187.8177441962791,766.7653638157644,1.828049881429443,391.8000016841688,812.8523820646835,1401.685332407612,3.57755315564678,2.074661507326706,1.0601057643234817
AU-Rig,145.57589721679688,-36.649898529052734,133,2011,2016,0.4000000059604645,0.8823529543245541,Cfb,GRA,196.72129821777344,plumber,C3,17.41543574265483,0.41614845725633853,2013-08-27,2016-12-31,2014,2016,3,FALSE,2013-08-27,2016-12-31,2014,2016,3,FALSE,2013-09-12,2016-12-31,2014,2016,3,FALSE,7.1258039474487305,383.7734890778859,467.3066485377563,994.0638709014843,872.2651570592473,1.7704153169775994,488.4916679813614,610.2903818235983,1544.2715945235627,3.1613059049811367,1.2493363179469505,0.6996615385637206
AU-Rob,145.63009643554688,-17.11750030517578,710,2014,2017,44,97.05882352941175,Cwa,EBF,851.1192626953125,plumber,C3,21.13985399136267,5.9452466381574105,2014-01-01,2017-12-31,2014,2017,4,FALSE,2014-01-01,2017-12-31,2014,2017,4,FALSE,2014-12-17,2017-12-31,2015,2017,3,FALSE,7.052748203277588,404.8550565838814,1172.0505508595893,2050.136499605029,8299.650060096144,0.29481877193566575,7894.795003512263,1645.2814430211472,2446.8926382133195,0.3099374508299123,0.20840078080421198,0.19823503775556628
AU-Sam,152.8778076171875,-27.388099670410156,170,2011,2017,0.5,2,Cfa,GRA,511.2165222167969,plumber,NA,22.113913648550714,0.9594958129242628,2013-07-12,2017-12-31,2014,2017,4,FALSE,2011-05-17,2017-12-31,2012,2017,6,FALSE,2011-05-17,2017-12-31,2012,2017,6,FALSE,4.208469390869141,399.60665758166994,654.1550115167804,1287.4684660813718,1653.200644804336,1.1643489406490317,1253.593987222666,887.8618084997019,1924.9024194582248,1.535507061359508,0.7082530847700994,0.5370562921627607
AU-Stp,133.35020446777344,-17.150699615478516,252,2010,2017,0.5,1.1029411764705883,BSh,GRA,324.3975830078125,plumber,C4,28.17377989617602,0.41999721016446967,2010-01-05,2017-11-02,2011,2016,6,FALSE,2010-01-01,2017-12-31,2010,2017,8,FALSE,2014-12-18,2016-01-14,2015,2015,1,FALSE,6.811386585235596,403.5786181986332,575.7809297623801,953.6204272584181,1135.5786185032848,1.703876755597881,732.0000003046516,550.0418090597849,1934.8860122217009,2.643286900842103,0.7514232361077358,0.48437140335096385
AU-TTE,133.63999938964844,-22.28700065612793,553,2013,2017,4.849999904632568,9.8100004196167,BWh,GRA,174.94302368164062,plumber,C4,26.20116742256336,0.2327728971292625,2015-01-13,2017-12-13,2016,2016,1,FALSE,2013-01-06,2017-12-13,2014,2016,3,FALSE,2013-01-06,2017-12-13,2014,2016,3,FALSE,6.794765949249268,404.4996919512749,319.0401044883605,742.5000954278856,791.5396914320418,2.3655867761674103,387.0399994807668,338.00040347661076,1872.4558268632704,4.83788711599644,0.8732957935356939,0.4270163671326519
AU-Tum,148.15170288085938,-35.65660095214844,1200,2002,2017,40,70,Cfb,EBF,504.646728515625,plumber,C3,10.503214430760584,0.4882616775048496,2010-09-11,2017-12-31,2011,2017,7,FALSE,2010-09-11,2017-12-31,2011,2017,7,FALSE,2010-09-11,2017-12-31,2011,2017,7,FALSE,4.934945106506348,371.5609466806054,909.5903389261124,1563.639924441013,878.8823172164452,1.8603330932440418,507.32137053583983,1192.0789777604075,1635.0138597847608,3.2228365583295586,2.349751157735219,1.3563579041343146
AU-Whr,145.02940368652344,-36.67319869995117,152,2015,2016,28,61.76470588235294,Cfb,EBF,196.9843292236328,plumber,C3,16.71229022120771,0.34400563393211664,2015-01-01,2016-12-31,2015,2016,2,FALSE,2015-01-01,2016-12-31,2015,2016,2,FALSE,2015-08-13,2016-12-31,2016,2016,1,FALSE,5.1105756759643555,382.03474670648575,508.9908885375115,1090.4742177799603,791.3397475473539,2.184734252325505,409.3050008408682,708.4394710734745,1728.867051693322,4.22390893866816,1.7308351220192038,0.8952406008534044
AU-Wrr,146.6544952392578,-43.09502029418945,100,2016,2017,90,198.52941176470588,Cfb,EBF,259.1888122558594,plumber,NA,11.804799539010418,1.692627978959026,2016-01-01,2017-12-31,2016,2017,2,FALSE,2016-07-20,2017-12-31,2017,2017,1,FALSE,2016-07-20,2017-12-31,2017,2017,1,FALSE,3.2755649089813232,364.9216857552528,585.1622399138512,1283.7800422212501,1704.6959785805666,0.8645254516196677,1339.7742928253138,918.8583564659974,1473.7530607565957,1.1000009991599016,0.685830711476267,0.5390159700095584
AU-Ync,146.2906951904297,-34.98929977416992,125,2011,2017,0.5,1.1029411764705883,BSk,GRA,238.2706298828125,plumber,mix,25.484468085146503,0.21685505385045128,2011-10-15,2017-12-13,2012,2016,5,FALSE,2011-01-09,2017-12-13,2012,2016,5,FALSE,2011-01-09,2017-12-13,2012,2016,5,FALSE,8.338541030883789,400.8262258682932,305.4455926995218,792.226215914852,763.2467615150879,2.756957585304979,362.42053564679475,391.39999004655886,2104.238948618482,5.806069859874652,1.0799608508608538,0.5128092378271056
BE-Bra,4.51984,51.30761,16,1996,2020,21,41,Cfb,MF,262.9107971191406,icos_warmwinter2020,C3,11.45397235320968,1.2964461402464649,2009-01-04,2020-12-31,2010,2020,11,FALSE,2004-01-01,2020-12-31,2004,2020,17,FALSE,2004-01-01,2017-02-04,2004,2016,13,FALSE,5.210631847381592,356.32627695798874,325.24199697137027,747.0301154200315,1158.5803947041709,0.8936195217214777,802.2541177461821,390.7038384620428,1035.330058191422,1.2905263248757557,0.48700758253465765,0.3372263506684007
BE-Dor,4.968113,50.311874,253,2011,2020,0.4707806229810339,1.038486668340516,Cfb,GRA,195.8311767578125,icos_warmwinter2020,C3,11.364062915018186,1.0414413842658847,2011-01-01,2020-12-31,2011,2020,10,FALSE,2015-01-06,2018-07-19,2016,2017,2,FALSE,NA,NA,NA,NA,0,TRUE,6.830763816833496,358.7027087688446,275.92158845504895,NA,977.6409117033998,0.9625154894368844,618.9382029345552,NA,940.9945206217196,1.5203367899415603,NA,NA
BE-Lcr,3.85,51.1,5,2019,2020,19.4375,42.87683823529412,Cfb,DBF,192.59117126464844,icos_warmwinter2020,C3,12.53507939467009,1.213449911180734,2019-01-01,2020-12-31,2019,2020,2,FALSE,2019-01-01,2020-12-31,2019,2020,2,FALSE,NA,NA,NA,NA,0,TRUE,5.908210277557373,362.5213344693184,428.5532329777626,NA,1124.2023337177675,NA,761.6809992484492,NA,NA,NA,NA,NA
BE-Lon,4.746234,50.55162,170,2004,2020,1,3.2062500000000003,Cfb,CRO,183.68844604492188,icos_warmwinter2020,rotation,12.085368542054674,1.1989392148315507,2004-04-01,2020-12-31,2005,2020,16,FALSE,2004-04-01,2020-12-31,2005,2020,16,FALSE,2004-04-01,2019-12-13,2005,2018,14,FALSE,4.730678558349609,360.5410117226488,376.37089279487134,917.7190941324246,1077.0748962742014,0.8315946605316434,716.5338845515527,557.1780824097758,895.6897327342996,1.2500312295696565,0.7776018614367265,0.5173067205791877
BE-Maa,5.631851,50.97987,87,2016,2020,2,3.5,Cfb,CSH,248.58624267578125,icos_warmwinter2020,C3,12.33760775999516,1.21186797041123,2016-01-01,2020-12-31,2016,2020,5,FALSE,2016-01-01,2020-12-31,2016,2020,5,FALSE,NA,NA,NA,NA,0,TRUE,6.9987382888793945,360.23964524269104,300.4010494773484,NA,1145.809447108752,NA,785.569801866061,NA,NA,NA,NA,NA
BE-Vie,5.998099,50.304962,490,1996,2020,35,77.20588235294119,Cfb,MF,224.2619476318359,icos_warmwinter2020,C3,9.144253118504071,1.3008596914749688,1996-08-01,2020-12-31,1997,2020,24,FALSE,1996-08-01,2009-03-24,1997,2008,12,FALSE,1996-08-01,2009-03-24,1997,2008,12,FALSE,4.410557746887207,349.1290919828415,373.12228419198016,807.6364355481553,1249.3500152698684,0.9058779282501968,900.2209232870268,458.5073435653139,1131.75860349202,1.257200953916475,0.5093275791581698,0.36699670865755984
BR-CST,-38.3842,-7.9682,468,2014,2015,2,5.599999904632568,Bsh,DNF,732.203369140625,ameriflux,NA,27.847447372737516,0.2486625431408619,2014-06-14,2015-08-01,2015,2014,0,TRUE,2014-06-14,2015-08-01,2015,2014,0,TRUE,NA,NA,NA,NA,0,TRUE,3.783748149871826,406.70480942726135,434.71562879658586,NA,846.0738128765249,NA,439.3690034492635,NA,NA,NA,NA,NA
BR-Npw,-56.412,-16.498,120,2013,2017,18,27,Aw,WSA,545.24578857421875,ameriflux,NA,27.280183576993817,0.8569785968664791,2015-01-17,2017-07-01,2016,2016,1,FALSE,2015-01-17,2017-07-01,2016,2016,1,FALSE,NA,NA,NA,NA,0,TRUE,6.812227249145508,402.29794631004336,1209.4273112336812,NA,1903.5765466534149,1.2172701672728057,1501.2786003433716,NA,2317.166941361392,1.543462313278435,NA,NA
BR-Sa3,-54.971435546875,-3.01802921295166,100,2001,2003,40,64,Am,EBF,661.40325927734375,plumber,C3,26.6714755590447,0.9007651932469856,2001-01-01,2003-12-18,2001,2002,2,FALSE,2001-01-01,2003-12-18,2001,2002,2,FALSE,2001-01-01,2003-12-18,2001,2002,2,FALSE,7.05645751953125,402.0157389243443,1209.465497698122,1836.4704118493487,1810.0527347140787,1.1413656021487277,1408.0369957897344,1434.4546729250044,2065.9319294778857,1.46724264749816,1.0187620618025401,0.7924933044293845
BW-Ma1,23.56032943725586,-19.916500091552734,929,2000,2000,8,12.600000381469728,BSh,SAV,359.0039367675781,plumber,NA,24.571028516772937,0.32313987861910326,2000-01-14,2000-12-31,2001,2000,0,TRUE,2000-01-01,2000-12-31,2000,2000,1,FALSE,2000-01-01,2000-12-31,2000,2000,1,FALSE,6.107773780822754,411.3134243488312,461.5143248065852,1019.416268038001,840.7876124702207,2.6763212024973018,429.47418812138943,608.1028436891698,2250.2177140511362,5.239471372875893,1.4159240776474595,0.7232538094877176
CA-ARB,-83.9452,52.695,90,2011,2015,0.8200000047683715,1.8088235399302317,Dfb,WET,851.85333251953125,ameriflux,NA,-0.02402126342403052,0.8203143448557522,2011-03-29,2015-12-23,2012,2014,3,FALSE,2011-03-27,2015-12-23,2012,2014,3,FALSE,NA,NA,NA,NA,0,TRUE,10.361634254455566,176.02390533685684,344.0927500695958,NA,607.0645064433083,NA,431.0406011064515,NA,NA,NA,NA,NA
CA-ARF,-83.955,52.7008,88,2011,2015,0.8200000047683715,1.8088235399302317,Dfb,WET,851.85333251953125,ameriflux,NA,0.1930609273848175,0.8575884376565294,2011-03-30,2015-12-31,2012,2015,4,FALSE,2011-03-29,2015-12-31,2012,2015,4,FALSE,NA,NA,NA,NA,0,TRUE,10.566325187683104,176.74476781338453,351.2537179934201,NA,625.6545692231754,NA,448.9098014097908,NA,NA,NA,NA,NA
CA-Ca1,-125.3336,49.8673,300,1996,2010,15.01866664759318,25.73499988555908,Cfb,ENF,293.2023620605469,ameriflux,C3,12.874985913968194,2.9351854031441524,1997-12-09,2010-12-31,1998,2010,13,FALSE,1997-10-13,2010-12-30,1998,2009,12,FALSE,1997-10-13,2010-12-30,1998,2009,12,FALSE,4.041609287261963,185.1391427755356,364.82618681929057,773.433645625631,2540.8868769549576,0.4816387484848437,2355.747734179422,588.2945028500955,1223.7895754581489,0.5194909275310974,0.24972729223700865,0.23153116661183976
CA-Ca2,-125.2909,49.8705,300,1999,2010,15.01866664759318,25.73499988555908,Cfb,ENF,301.47882080078125,ameriflux,C3,9.949193461929084,3.441027867215924,2000-07-27,2010-12-31,2001,2010,10,FALSE,2000-07-27,2010-12-31,2001,2010,10,FALSE,2000-07-27,2010-12-31,2001,2010,10,FALSE,4.164167881011963,181.56120099624,278.98899479384323,562.3954742904768,2238.0917016840026,0.443629735019702,2056.5305006877625,380.8342732942368,992.884028567868,0.48279567370180954,0.1851828957396328,0.17016026332061662
CA-Cbo,-79.9333,44.3167,120,1994,2020,23.183333333333337,51.13970588235294,Dfb,DBF,247.0664825439453,ameriflux,C3,8.64235881298137,1.1717520255338447,2008-02-12,2020-12-31,2009,2020,12,FALSE,2005-04-14,2020-12-31,2006,2020,15,FALSE,2005-04-14,2020-12-31,2006,2020,15,FALSE,4.099686622619629,326.7240978214476,480.7041007802326,940.1218884182323,1255.040691209771,1.0684375303303413,928.3165933883234,613.3977905967847,1340.9325765802523,1.4444776557164565,0.6607635745881736,0.4887473329693497
CA-DB2,-122.9951,49.119,4,2019,2020,2.596904761904762,5.059687523841858,Csb,WET,221.9344940185547,ameriflux,NA,11.078052071336526,2.1575758836345953,2019-11-22,2020-12-31,2020,2020,1,FALSE,2019-11-19,2020-12-31,2020,2020,1,FALSE,2019-11-19,2020-12-31,2020,2020,1,FALSE,9.10678482055664,353.6494323015213,201.77221471793425,607.4161001520501,1619.609435803401,0.7519597714672538,1265.9600035018798,253.76666785052885,1217.8811412129332,0.962021815731973,0.20045393784050305,0.15668386602393983
CA-DBB,-122.9849,49.1293,4,2014,2020,2.596904761904762,5.059687523841858,Csb,WET,221.9344940185547,ameriflux,NA,11.550997586394065,1.408776463997708,2016-02-14,2020-12-31,2017,2020,4,FALSE,2016-02-14,2020-12-31,2017,2020,4,FALSE,2016-02-14,2020-12-31,2017,2020,4,FALSE,9.96415901184082,355.7006643584796,386.636707319931,943.1695704216017,1513.9753830805994,0.8553413578349067,1158.2747187221198,587.4689060631222,1294.965759892783,1.118012625986924,0.5071930661762645,0.3880306857220856
CA-ER1,-80.4123,43.6405,370,2015,2021,1.9984558823529412,5.7072,Dfb,CRO,165.9332275390625,ameriflux,NA,8.479880270009216,1.429303465581815,2015-06-18,2020-12-31,2016,2020,5,FALSE,2015-06-17,2020-12-31,2016,2020,5,FALSE,NA,NA,NA,NA,0,TRUE,5.974582672119141,328.4364953140418,638.2159201124041,NA,1337.0194959969117,NA,1008.58300068287,NA,NA,NA,NA,NA
CA-Gro,-82.1556,48.2167,340,2003,2014,31,68.38235294117648,Dfb,MF,237.40826416015625,ameriflux,C3,4.195772698853447,1.1857537999162169,2003-08-28,2014-05-18,2004,2013,10,FALSE,2003-08-25,2014-05-18,2004,2013,10,FALSE,2003-08-25,2014-05-18,2004,2013,10,FALSE,4.683863639831543,296.8949173664053,384.2042421526073,835.3405617198164,1127.214917517595,1.1049055927373128,830.3200001511897,538.4456443534111,1245.4660665821195,1.4999832189461142,0.6484796756134595,0.477677890866811
CA-LP1,-122.8414,55.1119,751,2007,2022,15.01866664759318,25.73499988555908,Csa,ENF,262.4881286621094,ameriflux,NA,4.07276434851229,1.0467941026647982,2007-05-04,2012-10-25,2008,2011,4,FALSE,2007-05-04,2012-10-25,2008,2011,4,FALSE,2007-05-04,2012-10-25,2008,2011,4,FALSE,7.248086452484131,309.9820337306176,244.28166976777655,592.7619155614755,848.5456200929889,1.198584559641864,538.5635863623713,282.7798818308579,1017.0536783951876,1.8884560786307327,0.5250631290185113,0.3332524205355855
CA-MA1,-97.8762,50.1645,261,2009,2011,1.9984558823529412,5.7072,Dfb,CRO,182.9694061279297,ameriflux,NA,2.8123548876275195,0.6312024462507384,2009-05-23,2010-10-13,2010,2009,0,TRUE,2009-05-23,2010-10-13,2010,2009,0,TRUE,NA,NA,NA,NA,0,TRUE,8.402433395385742,170.39715543637672,448.6868196064889,NA,638.2061569711373,NA,467.8090015347605,NA,NA,NA,NA,NA
CA-MA2,-97.8762,50.171,261,2009,2011,1.9984558823529412,5.7072,Dfb,CRO,182.9694061279297,ameriflux,NA,4.758008214941675,0.7599314342887212,2009-05-15,2010-01-09,2010,2009,0,TRUE,2011-04-01,2011-11-30,2012,2010,-1,TRUE,2011-04-01,2011-11-30,2012,2010,-1,TRUE,6.610469818115234,178.30926553656658,400.54466992958,855.666172278858,662.6472663375839,1.3305687871486511,484.3380008010173,677.3569067422914,881.6977694781682,1.8204183194793344,1.3985210857336237,1.022198296366643
CA-MA3,-97.8686,50.1774,261,2009,2011,0.6142857159887042,1.3550420205633182,Dfb,GRA,182.9694061279297,ameriflux,NA,4.738520487985585,0.8310768404872022,2011-04-05,2011-11-30,2012,2010,-1,TRUE,2011-04-01,2011-11-30,2012,2010,-1,TRUE,2011-04-01,2011-11-30,2012,2010,-1,TRUE,12.534753799438477,178.41871337592602,450.2427629125248,NA,662.7567141769433,NA,484.3380008010173,NA,NA,NA,NA,NA
CA-NS1,-98.4839,55.8792,260,2001,2005,20,44.117647058823536,Dfc,ENF,741.468994140625,ameriflux,C3,2.470586202783549,0.2323118188751791,2002-06-26,2005-09-27,2003,2004,2,FALSE,2002-06-26,2005-09-27,2003,2004,2,FALSE,NA,NA,NA,NA,0,TRUE,5.618974208831787,271.22421284019947,349.7634728643961,NA,435.2358132629429,NA,164.01160042274344,NA,NA,NA,NA,NA
CA-NS2,-98.5247,55.9058,260,2001,2005,20,44.117647058823536,Dfc,ENF,758.646728515625,ameriflux,C3,-1.420916162354578,0.5855692174793865,2001-07-25,2004-11-14,2002,2003,2,FALSE,2001-07-25,2004-11-14,2002,2003,2,FALSE,NA,NA,NA,NA,0,TRUE,5.030539035797119,252.4125521302223,282.4407120219001,NA,584.8797524082195,1.949698949276471,332.4672002779971,NA,1140.339438723388,3.429930645097854,NA,NA
CA-NS3,-98.3822,55.9117,260,2001,2005,12.444598754835717,27.451320782725848,Dfc,ENF,750.125244140625,ameriflux,C3,1.749934304624864,0.3431149201015791,2001-07-25,2005-09-24,2002,2004,3,FALSE,2001-07-25,2005-09-24,2002,2004,3,FALSE,NA,NA,NA,NA,0,TRUE,6.023646831512451,275.9127179592848,274.50746265297585,NA,477.2783160407845,2.4420307465086686,201.36559808149968,NA,1165.528322413477,5.78812038162421,NA,NA
CA-NS4,-98.3806,55.9144,260,2001,2005,7,15.441176470588236,Dfc,ENF,750.125244140625,ameriflux,C3,0.7768919023403277,0.5746626501252704,2004-05-04,2005-09-28,2005,2004,0,TRUE,2003-01-01,2005-09-28,2003,2004,2,FALSE,NA,NA,NA,NA,0,TRUE,5.281637668609619,NA,122.14713599342944,NA,NA,NA,291.37339833600663,NA,1124.4710833264191,3.859209830918398,NA,NA
CA-NS5,-98.485,55.8631,260,2001,2005,5,9,Dfc,ENF,741.468994140625,ameriflux,C3,-0.4829890457997698,0.4532819501928985,2003-04-02,2005-09-25,2004,2004,1,FALSE,2003-04-01,2005-09-25,2004,2004,1,FALSE,NA,NA,NA,NA,0,TRUE,6.5356879234313965,254.4459146887064,281.8575668684484,NA,519.3655135025826,2.1950098084377605,264.9195988138763,NA,1140.012396302483,4.303239176741385,NA,NA
CA-NS6,-98.9644,55.9167,244,2001,2005,4,6,Dfc,OSH,729.70721435546875,ameriflux,C3,0.7254905296673315,0.42447680367372514,2001-10-01,2005-09-23,2002,2004,3,FALSE,2001-10-01,2005-09-23,2002,2004,3,FALSE,NA,NA,NA,NA,0,TRUE,3.761704206466675,260.716233766079,201.0833487859159,NA,518.3872313900426,1.9794023630512965,257.6709976239636,NA,1026.0969107890696,3.9821979200256017,NA,NA
CA-NS7,-99.9483,56.6358,297,2001,2005,0.25,0.5514705882352942,Dfc,OSH,807.2322998046875,ameriflux,C3,-0.19490624614790272,0.5318321840588398,2002-06-23,2005-09-30,2003,2004,2,FALSE,2002-06-22,2005-09-30,2003,2004,2,FALSE,NA,NA,NA,NA,0,TRUE,4.736624717712402,NA,338.06129412656117,NA,NA,NA,302.2509985326473,NA,982.795687727488,3.251587893832326,NA,NA
CA-Qcu,-74.036529541015625,49.2670783996582,392,2002,2006,5.5,12.132352941176473,Dfc,ENF,197.24952697753903,plumber,NA,1.6030536539503648,2.2839498693909563,2002-02-18,2006-12-31,2003,2006,4,FALSE,2002-01-23,2006-12-31,2003,2006,4,FALSE,2002-01-23,2006-12-31,2003,2006,4,FALSE,4.91405725479126,278.418776461482,326.4312324247533,611.3011701871942,1207.373371704769,0.7954479351156306,928.9545952432868,332.8823937257122,960.4026554361552,1.0338531725381397,0.3583408655603158,0.2757079139949011
CA-Qfo,-74.3421,49.6925,382,2003,2010,13.8,24,Dfc,ENF,211.28390502929688,ameriflux,C3,1.9854310692209216,1.4809508528701023,2003-08-27,2010-12-31,2004,2010,7,FALSE,2003-08-27,2010-12-31,2004,2010,7,FALSE,2003-08-27,2010-12-31,2004,2010,7,FALSE,5.5115532875061035,280.8556482978165,295.07006248327207,714.0009927732804,1231.6931508525618,0.978352743583528,950.8375025547452,433.14534447546384,1205.030373389644,1.26733576468316,0.45554087140197247,0.35166660151974244
CA-SF1,-105.8176,54.485,536,2003,2006,6,12.1,Dfc,ENF,887.1614990234375,ameriflux,C3,2.0023140376206756,0.7540598393291907,2005-04-08,2005-09-21,2006,2004,-1,TRUE,2003-07-17,2006-11-19,2004,2005,2,FALSE,2003-07-17,2006-11-19,2004,2005,2,FALSE,4.4785027503967285,282.6879247687757,1090.2453048098414,1600.6402731142707,1187.831927299486,1.778812442860229,905.1440025307104,1317.952348345495,2112.930212306973,2.33435807606236,1.4560692493797731,1.109544471785529
CA-SF1,-105.8176,54.485,536,2003,2006,6,12.1,Dfc,ENF,887.1614990234375,ameriflux,C3,2.0023140376206756,0.7540598393291907,2006-04-09,2006-09-22,2007,2005,-1,TRUE,2003-07-17,2006-11-19,2004,2005,2,FALSE,2003-07-17,2006-11-19,2004,2005,2,FALSE,4.4785027503967285,282.6879247687757,1090.2453048098414,1600.6402731142707,1187.831927299486,1.778812442860229,905.1440025307104,1317.952348345495,2112.930212306973,2.33435807606236,1.4560692493797731,1.109544471785529
CA-SF2,-105.8775,54.2539,520,2001,2006,4,9.144,Dfc,ENF,162.57510375976562,ameriflux,C3,3.566410845259252,0.577220805052907,2005-04-08,2005-09-21,2006,2004,-1,TRUE,2002-04-10,2005-10-27,2003,2004,2,FALSE,2002-04-10,2005-10-27,2003,2004,2,FALSE,6.052735805511475,294.3420441051324,445.2071239125545,836.404413433635,652.8393790446892,1.4722543047967944,358.4973349395568,542.0623693285027,961.1455861394098,2.6810396967147896,1.5120401645939576,0.8303150617564027
CA-SF3,-106.00530242919922,54.09159851074219,540,2003,2005,1,2.2058823529411766,Dfc,OSH,178.11813354492188,plumber,C3,2.752512650184374,0.7205359083433694,2003-04-09,2003-09-22,2004,2002,-1,TRUE,2003-01-01,2005-12-31,2003,2005,3,FALSE,2003-01-01,2005-12-31,2003,2005,3,FALSE,5.314791202545166,287.7869944125414,658.850922550756,1164.5628504457445,1069.3883305961851,1.6696542494747462,781.6013361836438,876.775856033203,1785.5087705186252,2.284423897273258,1.1217686248008119,0.819885378349322
CA-SF3,-106.00530242919922,54.09159851074219,540,2003,2005,1,2.2058823529411766,Dfc,OSH,178.11813354492188,plumber,C3,2.752512650184374,0.7205359083433694,2005-04-08,2005-09-21,2006,2004,-1,TRUE,2003-01-01,2005-12-31,2003,2005,3,FALSE,2003-01-01,2005-12-31,2003,2005,3,FALSE,5.314791202545166,287.7869944125414,658.850922550756,1164.5628504457445,1069.3883305961851,1.6696542494747462,781.6013361836438,876.775856033203,1785.5087705186252,2.284423897273258,1.1217686248008119,0.819885378349322
CA-TP1,-80.5595,42.6609,265,2002,2017,3.5444444444444443,5.333333333333333,Dfb,ENF,197.84371948242188,ameriflux,C3,10.356352369016788,1.0998928152170746,2008-05-01,2014-04-09,2009,2013,5,FALSE,2008-04-30,2014-04-10,2009,2013,5,FALSE,2008-04-30,2014-04-10,2009,2013,5,FALSE,6.675719261169434,339.5060696359724,342.29294474608645,799.0944875886624,1176.2603858740806,0.9426438882936846,836.7543162381082,459.58841795269007,1108.7946637861733,1.325113766692125,0.5492513262661304,0.3907199659802955
CA-TP3,-80.3483,42.7068,184,2002,2017,13.3,29.33823529411765,Dfb,ENF,197.84371948242188,ameriflux,C3,10.21744945903263,1.2862664354453637,2007-03-28,2017-12-31,2008,2017,10,FALSE,2007-03-28,2017-12-31,2008,2017,10,FALSE,2007-03-28,2017-12-31,2008,2017,10,FALSE,6.6750030517578125,337.42755892314017,446.5461368866348,915.5495486174575,1460.9713093702082,0.9334428362565212,1123.543750447068,578.1219896943173,1363.7332027079308,1.2137784595974026,0.5145522721872445,0.39571070697037347
CA-TPD,-80.5577,42.6353,260,2012,2017,25.7,56.69117647058824,Dfb,DBF,214.2979278564453,ameriflux,C3,10.61332354349354,1.0673682411709595,2012-01-01,2017-12-31,2012,2017,6,FALSE,2012-01-01,2017-12-31,2012,2017,6,FALSE,2012-01-01,2017-12-31,2012,2017,6,FALSE,6.388505935668945,341.1454304556052,363.4143640307353,937.4239773322709,1222.758932634985,1.2765750711498536,881.6135021793798,596.2785468766657,1560.943571427625,1.7705531591439074,0.6763491545928505,0.4876501254353668
CH-Aws,9.790417,46.583306,2014,2006,2020,0.5750000029802322,1.2683823595152182,ET,GRA,218.63607788085935,icos_warmwinter2020,C3,7.084686845233244,1.7626956464397707,2014-05-20,2020-12-31,2015,2020,6,FALSE,2014-05-20,2020-12-31,2015,2020,6,FALSE,2011-04-18,2011-11-04,2012,2010,-1,TRUE,7.483077526092529,211.8316041668256,836.6431079080834,NA,1576.102205572677,NA,1364.2706014058513,NA,NA,NA,NA,NA
CH-Cha,8.410440444946289,47.21022033691406,393,2005,2020,0.5,1.1029411764705883,Cfb,GRA,240.23568725585935,icos_warmwinter2020,C3,11.429130710360532,1.5255244133498271,2009-08-14,2020-12-31,2010,2020,11,FALSE,2009-08-16,2020-12-31,2010,2020,11,FALSE,2009-08-16,2020-12-31,2010,2020,11,FALSE,5.828620910644531,355.8601705431938,729.6472926994429,1273.3077402759734,1492.5460494569527,0.76829407578988,1136.6858789137589,917.4475697327796,1146.714287641366,1.0088224978541922,0.8071249821538311,0.6146862738785067
CH-Dav,9.85591,46.81533,1689,1997,2020,25,55.14705882352941,ET,ENF,223.23182678222656,icos_warmwinter2020,C3,5.549135442340891,1.1102321499510523,1997-01-01,2009-12-31,1997,2009,13,FALSE,1997-01-01,2020-12-31,1997,2020,24,FALSE,1997-01-01,2013-09-28,1997,2012,16,FALSE,2.306990146636963,347.3641991255184,578.5053764007167,1280.3339242451395,1185.4891603403264,1.0777770733173428,838.1249612148081,932.9697251196212,1277.6930376810312,1.5244660364596438,1.1131630345042363,0.7869913587837338
CH-Fru,8.537779808044434,47.1158332824707,982,2005,2020,0.5,1.1029411764705883,Cfb,GRA,213.80369567871097,icos_warmwinter2020,C3,8.865263835794986,2.329549425225928,2010-03-05,2020-12-31,2011,2020,10,FALSE,2010-03-05,2020-12-31,2011,2020,10,FALSE,2010-03-05,2015-01-28,2011,2014,4,FALSE,3.620929002761841,353.6810458600521,663.729078039743,1185.021026614854,1802.8161764796225,0.5384373666940268,1449.1351306195704,831.3399807548019,970.7035946970818,0.6698502949701195,0.5736800959337496,0.4611340810010746
CH-Lae,8.365,47.47808333,645,2004,2020,14.420000076293944,47,Cfb,MF,216.66603088378903,icos_warmwinter2020,C3,8.960637233517652,1.2319371871264582,2004-03-31,2020-12-20,2005,2019,15,FALSE,2004-03-31,2020-12-25,2005,2019,15,FALSE,NA,NA,NA,NA,0,TRUE,2.618077516555786,346.96327450345547,744.578085761183,NA,1187.4525720591157,NA,840.4892975556603,NA,NA,NA,NA,NA
CH-Oe1,7.731939792633057,47.285831451416016,450,2002,2008,0.5,2,Cfb,GRA,222.75596618652344,plumber,C3,9.897549124146009,1.977275585592536,2002-01-28,2008-12-31,2003,2008,6,FALSE,2002-01-26,2008-12-31,2003,2008,6,FALSE,NA,NA,NA,NA,0,TRUE,6.232672691345215,349.0847699216434,611.7481428393803,NA,1571.4281943969054,0.6097465842472495,1222.343424475262,NA,958.1729739233358,0.7838819719054556,NA,NA
CH-Oe2,7.734333333,47.28630556,450,2004,2020,0.8930252772826303,2.0833333333333335,Cfb,CRO,222.75596618652344,icos_warmwinter2020,C3,10.722047100424849,1.585975930923393,2004-01-07,2020-12-31,2005,2020,16,FALSE,2004-01-01,2020-12-31,2004,2020,17,FALSE,NA,NA,NA,NA,0,TRUE,7.736750602722168,352.8218182640917,650.7096976153609,NA,1481.5281750257373,NA,1128.7063567616456,NA,NA,NA,NA,NA
CN-Cha,128.09579467773438,42.40250015258789,754,2003,2005,28,61.76470588235294,Dwb,MF,247.1379547119141,plumber,C3,5.809592648754202,0.6914770974688168,2003-01-01,2005-12-31,2003,2005,3,FALSE,2003-01-01,2005-12-31,2003,2005,3,FALSE,NA,NA,NA,NA,0,TRUE,3.635377883911133,313.0663166542848,441.09292372938006,NA,779.2096513248582,1.531106944437319,466.1433346705735,NA,1193.0533083160724,2.55941299505915,NA,NA
CN-Cng,123.50920104980467,44.59339904785156,138,2008,2009,0.75,2,Dwa,GRA,154.80770874023438,plumber,C3,7.840229368052414,0.42682783393017193,2008-01-01,2009-12-31,2008,2009,2,FALSE,2008-01-01,2009-12-31,2008,2009,2,FALSE,2008-01-01,2009-12-31,2008,2009,2,FALSE,6.659930229187012,308.71532544493675,416.9643097921808,943.8978227706766,641.5653262772685,1.5732520634029852,332.8500008323317,635.1824973257399,1009.343973373522,3.0324289345036357,1.9083145432999524,0.9900511628510763
CN-Dan,91.06639862060548,30.497800827026367,4751,2004,2005,1,2.0999999046325684,ET,GRA,173.4037628173828,plumber,C3,4.322795846714192,0.5214553665252077,2004-01-05,2005-12-31,2005,2005,1,FALSE,2004-01-05,2005-12-31,2005,2005,1,FALSE,NA,NA,NA,NA,0,TRUE,7.910079956054688,397.9757516980171,586.3249113322673,NA,918.1257533030149,1.1278006324866883,520.1500016049978,NA,1035.4628052774574,1.990700378895295,NA,NA
CN-Din,112.53610229492188,23.17329978942871,261,2003,2005,30,66.1764705882353,Cfa,EBF,242.55422973632812,plumber,C3,20.856340458880176,1.519034714960078,2003-01-01,2005-12-31,2003,2005,3,FALSE,2003-01-01,2005-12-31,2003,2005,3,FALSE,NA,NA,NA,NA,0,TRUE,2.5577943325042725,391.2056473692258,628.9507218858797,NA,1764.7506515251177,0.7930239382801637,1373.545004155892,NA,1399.4895117549336,1.0188887204427537,NA,NA
CN-Du2,116.28359985351562,42.04669952392578,1331,2007,2008,0.5,1.1029411764705883,Dwb,GRA,166.8404083251953,plumber,C3,4.36991417652367,0.3736896022996101,2007-01-01,2008-12-31,2007,2008,2,FALSE,2007-01-01,2008-12-31,2007,2008,2,FALSE,2007-01-01,2008-10-24,2007,2007,1,FALSE,7.155744552612305,314.8508708178997,344.15843851895954,NA,599.7493720677812,1.8459079716881632,284.8985012498815,NA,1107.0821469148875,3.8858826636784496,NA,NA
CN-HaM,101.18000030517578,37.369998931884766,3975,2002,2003,0.30000001192092896,0.6617647321785198,ET,GRA,189.57565307617188,plumber,C3,2.549003748143295,0.7302452592779268,2002-01-08,2003-12-31,2003,2003,1,FALSE,2002-01-08,2003-12-31,2003,2003,1,FALSE,2002-01-08,2003-12-31,2003,2003,1,FALSE,2.527667284011841,367.0803800821304,335.8278373818236,918.0520782945787,950.4163816719697,1.4164346531798384,583.3360015898393,550.9716982124484,1346.2026979499733,2.3077654975537203,0.9445185908478401,0.5797161210996601
CN-Qia,115.05809783935548,26.74139976501465,64,2003,2005,13,39.599998474121094,Cfa,ENF,228.145263671875,plumber,C3,18.99983491006852,1.363573333581132,2003-01-01,2005-12-31,2003,2005,3,FALSE,2003-01-01,2005-12-31,2003,2005,3,FALSE,NA,NA,NA,NA,0,TRUE,3.8304238319396977,376.93803085883457,630.0339051812056,NA,1546.8460351271253,0.925087165335473,1169.9080042682908,NA,1430.9674138461678,1.2231452461436525,NA,NA
CZ-BK1,18.536882,49.502075,875,2004,2020,12.444598754835717,27.451320782725848,Dfb,ENF,259.2153015136719,icos_warmwinter2020,C3,8.072089444139118,1.777240596188475,2004-01-01,2020-12-27,2004,2019,16,FALSE,2004-01-08,2020-12-31,2005,2020,16,FALSE,2013-09-19,2020-12-31,2014,2020,7,FALSE,2.337387800216675,345.95678121903364,358.1380941964645,891.392232997732,1596.292844015313,0.7188885562648687,1250.3360627962793,545.4354517786983,1147.5566580101097,0.9177985760433786,0.43623108059354404,0.34168884100658536
CZ-KrP,15.078773,49.573257,531,2014,2020,0.8930252772826303,2.9244699090980473,Cfb,CRO,215.42469787597656,icos_warmwinter2020,NA,10.294486790479494,0.9599738650981486,2014-01-01,2020-12-31,2014,2020,7,FALSE,2014-01-01,2020-12-31,2014,2020,7,FALSE,2014-02-27,2020-12-31,2015,2020,6,FALSE,3.5680816173553467,203.75257990615708,397.5644219913334,783.7404420106428,836.9532963356307,1.2229205857730325,633.2007164294737,579.9878621044858,1023.52741541944,1.6164343925429543,0.9159621065733352,0.692975181104851
CZ-Lnz,16.946331,48.68155,150,2015,2020,29,60.325,Dfb,MF,218.02980041503903,icos_warmwinter2020,C3,12.39546711621415,0.6825417299077091,2015-01-01,2020-12-31,2015,2020,6,FALSE,2015-01-01,2020-12-31,2015,2020,6,FALSE,NA,NA,NA,NA,0,TRUE,5.522093772888184,355.7394864857197,543.1390037992413,NA,852.778655529391,1.3971681865303407,497.03916904367134,NA,1191.4752076577813,2.39714550052512,NA,NA
CZ-RAJ,16.6965125,49.4437236,628,2012,2020,12.444598754835717,19.085428571428572,Dfb,ENF,240.9299774169922,icos_warmwinter2020,C3,8.936512581690643,1.029933394273228,2012-01-01,2020-12-31,2012,2020,9,FALSE,2012-01-01,2020-12-31,2012,2020,9,FALSE,2014-01-28,2020-12-31,2015,2020,6,FALSE,3.118736982345581,203.68126612073848,351.65368072043105,718.4830861445739,868.5458219662357,1.4787737092203186,664.8645558454973,514.8018200238355,1284.3827267768208,1.9317960560305287,0.7742957802422938,0.592716937902498
CZ-Stn,17.9699,49.035975,576,2010,2020,23.183333333333337,51.13970588235294,Dfb,DBF,234.6613311767578,icos_warmwinter2020,C3,9.746286804821548,0.9422225102997314,2010-01-01,2020-12-31,2010,2020,11,FALSE,2010-01-01,2020-12-31,2010,2020,11,FALSE,NA,NA,NA,NA,0,TRUE,5.573789119720459,210.51273061606017,389.67731576421266,NA,875.8026425703517,1.2444847704860835,665.2899119542916,NA,1089.9230506302697,1.6382678153477732,NA,NA
CZ-wet,14.770350456237791,49.02465057373047,426,2006,2020,1,2.6,Cfb,WET,188.04153442382812,icos_warmwinter2020,C3,10.64272239702385,0.7763128227711371,2006-04-29,2020-12-31,2007,2020,14,FALSE,2006-04-28,2020-12-31,2007,2020,14,FALSE,2009-03-28,2020-12-31,2010,2020,11,FALSE,14.612222671508787,351.75532872279484,480.76108303276993,936.9753151158234,929.2325300194486,1.2843536531391502,577.4772012966538,585.2199863930285,1193.4631945462138,2.066684523417443,1.0134079494030055,0.6297885270770492
DE-Akm,13.68341667,53.86616667,-2,2009,2020,2.596904761904762,9.5,Cfb,WET,900.4317626953125,icos_warmwinter2020,C3,10.614350499231684,1.097103408651574,2012-04-19,2014-09-20,2013,2013,1,FALSE,2012-04-19,2014-09-21,2013,2013,1,FALSE,NA,NA,NA,NA,0,TRUE,6.907629489898682,350.96583922207355,512.0597420604021,NA,990.4581730044079,1.1367663657704972,639.4923337823343,NA,1125.919537773907,1.76064587219452,NA,NA
DE-Bay,11.866939544677734,50.14194107055664,781,1997,1999,25,55.14705882352941,Cfb,ENF,241.6418304443359,plumber,NA,6.794663488629541,2.1574961083398603,1997-05-23,1999-12-16,1998,1998,1,FALSE,1997-01-06,1999-12-25,1998,1998,1,FALSE,1997-05-17,1999-12-25,1998,1998,1,FALSE,3.807720184326172,336.71078797181445,311.5997249510428,719.5981731230934,1355.559375361376,0.7817596043249576,1018.8485873895614,382.887385151279,1059.721560921496,1.0401168279937032,0.37580401041953865,0.28245711114587346
DE-Geb,10.91463,51.09973,161.5,2001,2020,1,3.608692307692307,Cfb,CRO,186.36428833007812,icos_warmwinter2020,C3,11.148483308956552,0.9727387913063134,2001-01-15,2020-12-31,2002,2020,19,FALSE,2001-01-15,2020-12-31,2002,2020,19,FALSE,2001-01-15,2020-12-31,2002,2020,19,FALSE,6.195981502532959,351.49737624228,356.41750636367567,805.11162986964,867.3609785356506,0.9189186668777265,515.8636022933706,453.6142536273599,797.0341940977404,1.5450483239258828,0.87932982984403385,0.5229820857207439
DE-Gri,13.51259,50.95004,385,2004,2020,0.699999988079071,1.5441176207626568,Cfb,GRA,232.6336669921875,icos_warmwinter2020,C3,10.61635743555996,1.4230167323329737,2004-01-05,2020-01-07,2005,2019,15,FALSE,2004-01-05,2020-12-31,2005,2020,16,FALSE,2004-01-05,2020-12-31,2005,2020,16,FALSE,6.188467025756836,352.33049305396924,439.83284323988886,982.3741599473462,1178.3447900587848,0.8313476546345978,826.0142970048157,630.043666893377,979.6141775662684,1.1859530532563618,0.7627515276405729,0.534685324880119
DE-Hai,10.452089,51.079407,438.7,2000,2020,33,72.79411764705883,Cfb,DBF,190.60711669921875,icos_warmwinter2020,C3,9.007815062629614,1.1941925000540314,2000-01-01,2020-12-23,2000,2019,20,FALSE,2010-04-01,2020-12-23,2011,2019,9,FALSE,2010-04-01,2020-12-23,2011,2019,9,FALSE,3.927706241607666,344.72515469789505,362.04117213302845,797.5410499445733,1061.1560143792613,0.898695009444305,716.4308596813661,452.8158952466782,953.6556143644513,1.331120235089526,0.6320440962692044,0.42671943532408807
DE-HoH,11.22235,52.08656,193,2015,2020,19.4375,42.87683823529412,Cfb,DBF,219.05535888671875,icos_warmwinter2020,C3,10.827203284926554,0.7170186193201866,2015-01-01,2020-12-31,2015,2020,6,FALSE,2015-01-01,2020-12-31,2015,2020,6,FALSE,2015-01-01,2020-12-31,2015,2020,6,FALSE,5.204469203948975,352.32605414589244,551.1873745673462,1086.6165099215193,819.4097230585114,1.3631686010540334,467.08366891261903,734.2904557756269,1116.993605871744,2.391420810049149,1.5720747794181524,0.8961212383895445
DE-Hte,12.176111,54.210278,4,2009,2018,2.596904761904762,5.059687523841858,Cfb,WET,208.72718811035156,icos_drought2018,C3,10.342489567906847,1.1809613718483212,2014-05-03,2018-12-03,2015,2017,3,FALSE,NA,NA,NA,NA,0,TRUE,NA,NA,NA,NA,0,TRUE,5.46602201461792,212.4527589380741,558.4316465011525,NA,816.0377592281875,0.9779739343047582,603.5850002901134,NA,798.0636579336295,1.3222059155711954,NA,NA
DE-Hzd,13.48978,50.96381,395,2010,2020,23.183333333333337,51.13970588235294,Dfb,DBF,226.39588928222656,icos_warmwinter2020,C3,10.640105310727003,1.061906516669079,2011-03-01,2015-10-23,2012,2014,3,FALSE,2011-03-01,2015-10-27,2012,2014,3,FALSE,2011-03-01,2015-10-27,2012,2014,3,FALSE,4.984316825866699,352.6365159804171,534.2914531932853,1032.1772471497459,971.8197904156873,0.9860142115959148,619.1832744352703,679.5407311693288,958.2281244600312,1.5475678430332096,1.0974791458782667,0.6992456192713067
DE-Kli,13.52238,50.89306,478,2004,2020,1.5,3.5,Cfb,CRO,192.32388305664065,icos_warmwinter2020,C3,9.293830083874727,1.4423365132068775,2009-05-15,2020-12-31,2010,2020,11,FALSE,2009-05-15,2020-12-31,2010,2020,11,FALSE,2009-05-15,2020-12-31,2010,2020,11,FALSE,4.292603492736816,346.3939273217145,436.6743928834195,881.1974330480623,1109.691752989833,0.8065233151264135,763.2978256681185,534.8035057263478,894.9922713898013,1.172533500415005,0.7006485381485681,0.48193879452147975
DE-Meh,10.65546989440918,51.27531051635742,291,2004,2006,1,3,Cfb,MF,190.88877868652344,plumber,NA,9.924455345017066,1.05543040460022,NA,NA,NA,NA,NA,NA,NA,NA,NA,NA,NA,NA,NA,NA,NA,NA,NA,NA,5.13113260269165,346.9920004606247,300.6206164804938,748.0050099664647,867.4253396454441,0.9209684989124314,520.4333391848194,401.0130095058401,798.8714129718705,1.5350119848647332,0.7705367418120574,0.46230262268998534
DE-Obe,13.72128963470459,50.786659240722656,734,2008,2020,19,30,Cfb,ENF,232.6336669921875,icos_warmwinter2020,C3,7.4682890505115855,1.8998477816071004,2008-01-25,2020-12-31,2009,2020,12,FALSE,2008-01-24,2020-12-31,2009,2020,12,FALSE,2008-01-24,2020-12-31,2009,2020,12,FALSE,3.3394079208374023,340.01120906609754,384.4596297551851,864.0707764532709,1299.164827320571,0.8173351890914883,959.1536182544736,524.0595673871734,1061.8531297990696,1.1070730585695907,0.5463770947774654,0.4033818930181527
DE-RuR,6.304126,50.621914,514.7,2011,2020,0.4707806229810339,1.038486668340516,Cfb,GRA,246.34127807617188,icos_warmwinter2020,C3,9.268116607798538,1.492628263323465,2011-05-13,2020-12-31,2012,2020,9,FALSE,2011-05-13,2020-12-31,2012,2020,9,FALSE,2011-05-13,2020-12-31,2012,2020,9,FALSE,3.509934425354004,351.2893171787262,544.4202956831338,1114.9278016653682,1207.2883183253596,0.7690893867715188,855.9990011466334,763.6384844866419,928.512632397269,1.0847122848899375,0.8921020742591146,0.6325237086248724
DE-RuS,6.4471445,50.865906,103.2,2011,2020,0.8930252772826303,2.455,Cfb,CRO,216.4841766357422,icos_warmwinter2020,C3,12.728151228504252,0.8494569242159955,2012-04-28,2020-12-31,2013,2020,8,FALSE,2012-04-28,2020-12-31,2013,2020,8,FALSE,2012-04-28,2020-12-31,2013,2020,8,FALSE,8.993896484375,363.31253920197486,582.8487520577538,1212.3759493821103,906.0873401901804,1.0745591523887372,542.7748009882055,849.0634101801355,973.6444442649256,1.793827647289917,1.5643014536310165,0.9370657468869656
DE-RuW,6.3309627,50.50493,610,2012,2020,15.01866664759318,25.73499988555908,Cfb,ENF,237.6573486328125,icos_warmwinter2020,C3,8.63269658913328,1.810323651362198,2012-01-10,2020-12-31,2013,2020,8,FALSE,2012-01-08,2020-12-31,2013,2020,8,FALSE,NA,NA,NA,NA,0,TRUE,4.657596588134766,348.80817258358,699.1912554562588,NA,1373.9399519806911,NA,1025.1317793971111,NA,NA,NA,NA,NA
DE-Seh,6.449649810791016,50.87062454223633,103,2008,2010,0.800000011920929,2,Cfb,CRO,216.4841766357422,plumber,C3,10.19747185649943,1.3346047171306452,2008-01-08,2010-10-15,2009,2009,1,FALSE,2008-01-08,2010-10-15,2009,2009,1,FALSE,2008-01-08,2010-10-15,2009,2009,1,FALSE,9.36851406097412,347.6595307985942,538.9876019861538,966.5932595615434,875.265532759661,0.6986314489784332,527.6060019610668,618.9337287629493,611.4880273927623,1.1589861091797915,1.1730983469907943,0.7071382404508577
DE-SfN,11.327500343322754,47.80638885498047,590,2013,2014,2,4.300000190734863,Cfb,WET,1114.90185546875,plumber,C3,10.242259695825304,1.318721503746127,2013-01-01,2014-12-31,2013,2014,2,FALSE,2013-01-01,2014-12-31,2013,2014,2,FALSE,2013-01-01,2014-12-31,2013,2014,2,FALSE,7.726890563964844,354.64754316210747,454.5222901172441,950.4694801603478,1242.233045427653,1.1731876489043058,887.5855022655455,595.8219369982403,1457.372465956504,1.6419516342218163,0.6712839895169714,0.47963780966164987
DE-Tha,13.56515,50.96256,380,1996,2020,26.5,42,Cfb,ENF,240.72471618652344,icos_warmwinter2020,C3,9.88516778240855,1.1506722198759782,1996-06-29,2020-12-05,1997,2019,23,FALSE,1996-06-29,2020-12-05,1997,2019,23,FALSE,1996-06-29,2020-12-05,1997,2019,23,FALSE,3.335569381713867,348.02665106058123,401.79770768443075,884.2965590350993,1154.3696140945135,0.9527363261013692,806.3429630339324,536.2699079745181,1099.809865095462,1.3639479917544466,0.665064287231773,0.4645565002983622
DE-Wet,11.45753002166748,50.45349884033203,703,2002,2006,22,48.52941176470589,Cfb,ENF,235.99951171875,plumber,NA,6.85568481937118,2.367851440605332,2003-02-13,2006-11-28,2004,2005,2,FALSE,2002-01-02,2006-12-30,2003,2005,3,FALSE,2002-01-02,2006-12-30,2003,2005,3,FALSE,3.3274526596069336,334.4439633131027,334.4822663316811,771.4112887345989,1356.1139700570548,0.831856699886592,1021.6700067439522,436.96732542149624,1128.0924918017663,1.1041652239522828,0.42769908339983953,0.32222020793953776
DK-Fou,9.587220191955566,56.48419952392578,51,2005,2005,1,3.5,Cfb,CRO,202.92849731445312,plumber,C3,9.357466119353026,1.2544514110359164,2005-01-27,2005-10-14,2006,2004,-1,TRUE,2005-01-26,2005-10-14,2006,2004,-1,TRUE,2005-01-26,2005-10-14,2006,2004,-1,TRUE,4.922911643981934,347.1057216525078,99.86190918541028,NA,990.4207207165198,0.9106297076913716,643.314999064012,NA,901.906531397562,1.4019672053500798,NA,NA
DK-Gds,9.3341,56.0737,89,2020,2020,12.444598754835717,19.085428571428572,Dfb,ENF,236.9896697998047,icos_warmwinter2020,C3,8.476463631342966,4.1220771660463225,2020-07-09,2020-12-16,2021,2019,-1,TRUE,2020-07-09,2020-12-31,2021,2020,0,TRUE,NA,NA,NA,NA,0,TRUE,5.849993705749512,349.5469328761101,726.850327044353,NA,1406.1079339548269,NA,1056.5610010787168,NA,NA,NA,NA,NA
DK-Lva,12.08329963684082,55.68330001831055,-2493,2005,2006,0.5,1.1029411764705883,Cfb,GRA,207.0031890869141,plumber,NA,9.014476825954809,2.6703371810163157,2005-01-01,2006-12-31,2005,2006,2,FALSE,2005-01-01,2006-12-31,2005,2006,2,FALSE,2005-01-01,2005-07-12,2005,2004,0,TRUE,4.460951328277588,299.360003054142,371.60449678001345,NA,1300.0292640938715,0.5356924933987276,1000.6692610397296,NA,696.415917973759,0.6959501456556774,NA,NA
DK-Ris,12.097220420837402,55.53028106689453,24,2004,2005,1,2,Cfb,CRO,172.05734252929688,plumber,NA,7.726255016901862,2.928960895859379,2004-01-01,2005-12-31,2004,2005,2,FALSE,2004-01-01,2005-12-31,2004,2005,2,FALSE,NA,NA,NA,NA,0,TRUE,9.434333801269531,335.3682400584221,361.3387141988493,NA,816.5982565006304,1.155312841850478,481.2300164422084,NA,943.4264523678888,1.9604480604571477,NA,NA
DK-Sor,11.644645,55.48587,40,1996,2020,25,43.5,Cfb,DBF,166.7314453125,icos_warmwinter2020,C3,9.110810573349305,1.5865937286666238,1996-06-01,2013-12-05,1997,2012,16,FALSE,1996-06-01,2013-12-05,1997,2012,16,FALSE,2001-04-05,2013-12-05,2002,2012,11,FALSE,5.446774959564209,343.2048798513413,439.3536862988777,818.4034466638632,1166.7953634955054,0.7134775979134073,823.5904836441641,475.1985668125219,832.4823532032741,1.0107964695266582,0.5769840427367463,0.4072681308819346
DK-ZaH,-20.55030059814453,74.47319793701172,38,2000,2013,0.5,1.1029411764705883,ET,GRA,171.7994842529297,plumber,NA,-8.544635166756503,0.5775429801437331,2008-03-26,2008-11-01,2009,2007,-1,TRUE,2008-03-20,2008-11-01,2009,2007,-1,TRUE,NA,NA,NA,NA,0,TRUE,7.302747249603272,177.81734278323088,126.32456746948272,NA,325.22112911645047,0.6983234186908177,147.40378633321956,NA,227.10953071508752,1.5407306444739888,NA,NA
ES-Abr,-6.785881,38.701839,279,2015,2020,8,15,Csa,SAV,393.9819641113281,icos_warmwinter2020,C3,20.406639869506616,0.32820458565988375,2015-11-04,2020-12-31,2016,2020,5,FALSE,2015-11-04,2020-12-31,2016,2020,5,FALSE,2015-11-04,2020-12-31,2016,2020,5,FALSE,5.7895283699035645,213.20051419238249,335.9576978604326,722.2095807339106,551.1420151630344,2.639619856815955,337.94150097065193,509.00906654152806,1454.8054071499057,4.304903076335233,1.5062046687948287,0.9235533719761087
ES-Agu,-2.033208,36.940046,195,2006,2020,1.35,4.275,BSk,OSH,166.910888671875,icos_warmwinter2020,C3,18.803082529800644,0.26882918787066384,2006-06-02,2013-12-31,2007,2013,7,FALSE,2006-06-02,2015-09-01,2007,2014,8,FALSE,2006-06-02,2015-09-01,2007,2014,8,FALSE,5.212456703186035,224.68910577694575,200.16108053738165,411.9972498399153,492.6492395200612,2.8337385187925896,267.9601337431154,187.30814406296955,1396.039126281874,5.2098762109896954,0.6990149670642265,0.38020589303140934
ES-Cnd,-3.227659,37.914998,371,2014,2020,2.5,6.400000095367432,Bsk,WSA,488.8213195800781,icos_warmwinter2020,C3,19.642806806297177,0.5813192711060968,2014-11-26,2020-12-31,2015,2020,6,FALSE,2014-11-26,2020-12-31,2015,2020,6,FALSE,2014-11-26,2020-12-31,2015,2020,6,FALSE,5.100535869598389,224.41553129894393,363.1854448591091,827.2819497197472,871.0823892714155,1.8036662677472681,646.6668579724716,602.8664184208033,1571.141921957547,2.4296001914859695,0.932267381555631,0.6920888607621243
ES-ES1,-0.31880998611450195,39.345970153808594,1,1999,2006,7.5,13,Csa,ENF,676.3885131835938,plumber,NA,18.061281364280173,0.5311982120660297,2002-01-12,2004-09-17,2003,2003,1,FALSE,1999-01-01,2006-12-31,1999,2006,8,FALSE,2002-06-04,2005-10-20,2003,2004,2,FALSE,5.094195365905762,383.7952155470848,564.1011308089785,NA,943.3676707294918,1.9232036469821214,559.572455182407,NA,1814.2881447919876,3.242275648111689,NA,NA
ES-ES2,-0.3152799904346466,39.27555847167969,7,2005,2006,0.5,1.600000023841858,Csa,CRO,673.4434661865234,plumber,NA,18.909522455832523,0.5789435468249144,2005-01-01,2006-12-31,2005,2006,2,FALSE,2005-01-01,2006-12-31,2005,2006,2,FALSE,2005-01-01,2006-12-31,2005,2006,2,FALSE,6.704644203186035,386.2326032221318,861.0077305025468,1401.3064752264913,964.7018661297493,1.6625946868006234,578.4692629076175,1015.0738720043596,1603.9081969739675,2.772676613640775,1.7547585275355737,1.052215101518043
ES-LJu,-2.752115,36.926594,1622,2004,2020,0.20000000298023224,0.44117647716227704,Csa,OSH,406.2940979003906,icos_warmwinter2020,C3,12.94772714475872,0.6275822600380149,2007-01-01,2016-12-02,2007,2015,9,FALSE,2004-05-23,2016-12-03,2005,2015,11,FALSE,2004-05-23,2016-12-03,2005,2015,11,FALSE,2.2858798503875732,386.807292026632,257.6248424468699,778.1110470941435,990.6388222514533,1.4303248581340482,603.8315302248213,391.3037550675115,1416.9353328988907,2.3465739398724854,0.6480346511912345,0.3950014336993014
ES-LM1,-5.778683,39.94269,261,2014,2020,8,15,Csa,SAV,341.9933166503906,icos_warmwinter2020,C3,19.40564076230384,0.5451370011686327,2014-03-14,2020-12-31,2015,2020,6,FALSE,2014-03-14,2020-12-31,2015,2020,6,FALSE,2014-03-14,2020-12-31,2015,2020,6,FALSE,5.442254066467285,222.56023495537897,513.858121797492,992.6800354650038,864.8482369912808,1.9093505640162922,642.2880020359019,770.1198005096248,1651.298469087798,2.5709626582678964,1.1990256677199733,0.8904681394608531
ES-LM2,-5.778683,39.94269,261,2014,2020,8,15,Csa,SAV,341.9933166503906,icos_warmwinter2020,C3,19.50064917446702,0.5161768257241396,2014-03-14,2020-12-31,2015,2020,6,FALSE,2014-03-14,2020-12-31,2015,2020,6,FALSE,2014-03-14,2020-12-31,2015,2020,6,FALSE,5.442254066467285,222.59482932942257,465.9237592586648,918.100467194907,829.4851168798491,1.9865119756004237,606.8902875504265,695.5056378654845,1647.7821182641374,2.7151235603308668,1.146015436616614,0.838478742670712
ES-LMa,-5.773359775543213,39.94269180297851,278,2004,2006,8,15,Csa,SAV,341.9933166503906,plumber,NA,18.046349440696144,0.7168964937249679,2004-02-14,2006-10-31,2005,2005,1,FALSE,2004-01-08,2006-12-31,2005,2006,2,FALSE,2004-01-08,2006-12-31,2005,2006,2,FALSE,5.778726577758789,381.2348748644193,515.9696726732801,915.9117369750434,1072.538894812062,1.2283112289204139,691.3040199476427,534.676862110624,1317.4115679515462,1.9056905933388368,0.7734323057330389,0.49851512583542623
ES-LgS,-2.965830087661743,37.09793472290039,2267,2007,2007,0.20000000298023224,0.44117647716227704,Csa,OSH,594.52252197265625,plumber,C3,6.078360936575485,0.41017577057089666,2007-01-01,2007-12-31,2007,2007,1,FALSE,2007-01-01,2007-12-31,2007,2007,1,FALSE,2007-01-01,2007-12-31,2007,2007,1,FALSE,2.255000352859497,362.6732183098793,359.46322073291844,795.5488457819931,764.373219888017,NA,401.7000015781377,432.8756274721138,NA,NA,1.0776092252215537,0.5663144864435876
ES-VDA,1.4485000371932983,42.15217971801758,1787,2004,2004,0.5,1.5,Cfb,GRA,193.555419921875,plumber,NA,8.24793714710161,1.358679009843219,2004-01-05,2004-12-31,2005,2004,0,TRUE,2004-01-01,2004-12-31,2004,2004,1,FALSE,2004-01-01,2004-12-31,2004,2004,1,FALSE,3.1143341064453125,368.3173271417618,414.22632485409787,840.1046663083785,1294.550165047503,0.5968897872770695,926.2328379057412,471.78733916661673,772.7037726346994,0.8342435519580814,0.5093614908248681,0.36444114094976354
FI-Hyy,24.29477,61.847410000000004,181,1996,2020,14,32.8,Dfc,ENF,243.5284881591797,icos_warmwinter2020,C3,5.031999628061928,1.237947070764459,1996-06-13,2017-12-19,1997,2016,20,FALSE,1996-04-11,2020-12-31,1997,2020,24,FALSE,2002-12-09,2019-10-26,2003,2018,16,FALSE,5.061100959777832,314.85092946767804,316.83600050129473,701.9197042864506,946.2094905015836,0.9012716645339066,631.3585610339055,387.06877481877257,852.7918025021419,1.350725016075841,0.6130728221771685,0.40907302104271676
FI-Kaa,27.29503059387207,69.14069366455078,159,2000,2002,0.800000011920929,1.764705908649108,Dfc,WET,209.4245452880859,plumber,NA,0.0238480956827845,2.0924175851930458,2000-03-05,2002-12-08,2001,2001,1,FALSE,2000-01-01,2002-12-15,2000,2001,2,FALSE,NA,NA,NA,NA,0,TRUE,7.01309871673584,267.74084211389226,237.462140294065,NA,752.8067305068934,0.6925466273427981,485.0658883930011,NA,521.3537622535077,1.0748101953339295,NA,NA
FI-Ken,24.24301,67.98721,347,2018,2020,12.444598754835717,19.085428571428572,Dfc,ENF,212.5679473876953,icos_warmwinter2020,C3,1.3148620251093484,3.197524693462152,2018-01-01,2020-12-31,2018,2020,3,FALSE,2018-01-01,2020-12-31,2018,2020,3,FALSE,NA,NA,NA,NA,0,TRUE,4.823010444641113,286.0653202285369,272.98286922367157,NA,930.5586560385029,NA,644.4933358099661,NA,NA,NA,NA,NA
FI-Let,23.95952,60.64183,125,2009,2020,12.444598754835717,25.7,Dfb,ENF,232.94081115722656,icos_warmwinter2020,C3,6.098136982446656,1.3193402858441954,2009-09-03,2020-12-31,2010,2020,11,FALSE,2009-09-03,2020-12-31,2010,2020,11,FALSE,2009-09-03,2020-12-31,2010,2020,11,FALSE,7.856218814849853,320.8989458555977,382.8521951091653,654.044533897436,900.55577729064,0.818866119278825,579.6568314350424,333.1455880418384,737.4346145441122,1.2721917081844152,0.5747289947693326,0.36993331944870855
FI-Lom,24.20918083190918,67.99720001220703,274,2007,2009,0.4000000059604645,0.8823529543245541,Dfc,WET,212.5679473876953,plumber,C3,0.4229734850230186,1.7792960958599782,2007-01-01,2009-12-31,2007,2009,3,FALSE,2007-01-01,2009-12-31,2007,2009,3,FALSE,2007-01-01,2009-12-31,2007,2009,3,FALSE,4.822475433349609,278.32073193291825,261.7656442943865,517.0273889673111,813.4430663931842,0.4096668427920441,535.1223344602658,238.7066570343929,333.24065280037485,0.622737328159714,0.4460786658720884,0.29345219954092294
FI-Qvd,22.391607,60.295242,11,2018,2020,1.9984558823529412,5.7072,Dfb,CRO,184.40321350097656,icos_warmwinter2020,C3,7.8945057985255636,1.8426035925360364,2018-05-04,2020-12-31,2019,2020,2,FALSE,2018-05-04,2020-12-31,2019,2020,2,FALSE,NA,NA,NA,NA,0,TRUE,4.87139368057251,163.2258349408706,402.975367928227,NA,862.2691683436944,0.7054862739049383,699.0433334028238,NA,608.319062677903,0.8702165282325339,NA,NA
FI-Sii,24.19285,61.83265,160,2016,2020,0.8200000047683715,1.8088235399302317,Dfc,WET,1099.7742919921875,icos_warmwinter2020,C3,5.597366287742534,1.3210492783463672,2016-02-25,2020-12-31,2017,2020,4,FALSE,2016-02-25,2020-12-31,2017,2020,4,FALSE,NA,NA,NA,NA,0,TRUE,5.754791259765625,320.16989109516146,306.2377561440992,NA,921.4682928656163,NA,601.2984017704548,NA,NA,NA,NA,NA
FI-Sod,26.63783073425293,67.36186218261719,180,2008,2014,12.699999809265137,23,Dfc,ENF,218.66461181640625,plumber,C3,1.3713615222292523,1.7220571435669847,2008-01-01,2014-12-31,2008,2014,7,FALSE,2008-01-01,2014-12-31,2008,2014,7,FALSE,2008-01-01,2010-11-08,2008,2009,2,FALSE,6.3535661697387695,281.10957489056244,295.40901192807496,524.6995513185905,822.0352908383695,0.6489638125474523,540.925715947807,243.58997642802797,533.4711563910221,0.9862188848912034,0.45032056943569593,0.29632544872811695
FI-Var,29.61,67.7549,395,2016,2020,12.444598754835717,19.085428571428572,Dfc,ENF,222.59884643554688,icos_warmwinter2020,C3,0.29994067883002484,1.6905349904507412,2016-01-01,2020-12-31,2016,2020,5,FALSE,2016-01-01,2020-12-31,2016,2020,5,FALSE,2016-01-01,2020-12-31,2016,2020,5,FALSE,4.545340538024902,280.3373478889465,160.14543402378797,467.77781011306223,811.1909485047885,0.6803529301603658,530.853600615842,187.44046222411572,551.8961387347993,1.039639060740185,0.35309257016749346,0.2310682368554674
FR-Aur,1.106103,43.54965,250,2005,2020,0.8930252772826303,2.9244699090980473,Cfb,CRO,225.2197265625,icos_warmwinter2020,C3,15.077776359771756,0.8610262073130054,2005-03-12,2020-12-31,2006,2020,15,FALSE,2005-03-11,2020-12-31,2006,2020,15,FALSE,2005-03-11,2020-12-31,2006,2020,15,FALSE,8.748833656311035,373.5426339060068,468.57579403495106,990.4618686995304,1025.6633855661908,1.0792530709509767,652.120751660184,616.9192347935236,1106.950358634287,1.697462250382598,0.9460199406673633,0.6014831410336144
FR-Bil,-0.95594,44.49389,39,2014,2020,15.01866664759318,25.73499988555908,Cfb,ENF,230.1852874755859,icos_warmwinter2020,C3,15.742843480582486,1.1864547629022495,2014-07-12,2020-12-31,2015,2020,6,FALSE,2014-07-11,2020-12-31,2015,2020,6,FALSE,2014-07-11,2020-12-31,2015,2020,6,FALSE,7.354825973510742,217.08764439821243,679.344901014372,1001.2433820451382,1262.3416463682233,1.268566900260135,1045.254001970011,784.1557376469258,1601.3648294026125,1.532034152832219,0.7502059175750697,0.62119137073783
FR-EM2,3.02065,49.87211,85,2017,2018,0.8930252772826303,2.9244699090980473,Cfb,CRO,157.40341186523438,icos_drought2018,mix,12.366925323326598,0.8441745255902905,2017-01-01,2018-12-31,2017,2018,2,FALSE,NA,NA,NA,NA,0,TRUE,NA,NA,NA,NA,0,TRUE,6.200962543487549,177.63033713400364,508.7174003562451,NA,770.4443397167851,NA,592.8140025827814,NA,NA,NA,NA,NA
FR-FBn,5.67865,43.24079,436,2008,2020,14.420000076293944,27.95,Csa,MF,314.62066650390625,icos_warmwinter2020,C3,15.27776997609833,0.6530362720545946,2008-01-11,2020-12-31,2009,2020,12,FALSE,2008-01-11,2020-12-31,2009,2020,12,FALSE,NA,NA,NA,NA,0,TRUE,4.322998046875,378.73219725260367,480.1135449856272,NA,1063.5303533188142,1.4941107476407745,684.7981560662105,NA,1589.0321313358304,2.3204386829309644,NA,NA
FR-Fon,2.780096,48.476357,103,2005,2020,24,37,Cfb,DBF,242.46046447753903,icos_warmwinter2020,C3,12.588923826341864,0.8506656618217598,2005-03-10,2014-02-21,2006,2013,8,FALSE,2005-03-10,2014-02-21,2006,2013,8,FALSE,NA,NA,NA,NA,0,TRUE,4.67879581451416,361.39182863757014,639.3285332108147,NA,1038.8107046095265,1.1830119706739985,677.4188759719565,NA,1228.925498817361,1.814129399707243,NA,NA
FR-Gri,1.95191,48.84422,125,2004,2020,1,3.4125,Cfb,CRO,252.6805725097656,icos_warmwinter2020,rotation,12.318520876148083,0.9448623817541772,2004-05-12,2018-02-08,2005,2017,13,FALSE,2004-05-11,2018-02-08,2005,2017,13,FALSE,2004-05-11,2018-02-08,2005,2017,13,FALSE,3.90938401222229,360.2752794798683,422.9043318547567,944.3464632203402,944.8733999454723,1.009042571990179,584.5981204656041,584.0711837404718,953.4174856860844,1.6308938607717958,0.9990986342468693,0.6181475568834703
FR-Hes,7.0655598640441895,48.67416000366211,293,1997,2006,13,28.676470588235297,Cfb,DBF,124.46168518066406,plumber,C3,10.43700459356918,1.8110096658794816,2003-01-07,2006-12-29,2004,2005,2,FALSE,2000-04-17,2006-12-31,2001,2006,6,FALSE,2000-04-17,2006-12-31,2001,2006,6,FALSE,3.676394701004028,NA,335.3848798692968,NA,NA,NA,960.3314869989936,435.66620900095455,1135.5967130214804,1.1825049250131174,0.4536623185837612,NA
FR-LBr,-0.7692999839782715,44.71710968017578,61,2003,2008,20,38,Cfb,ENF,212.5679473876953,plumber,C3,14.446076316316132,1.191663357430779,2003-01-01,2008-12-31,2003,2008,6,FALSE,2003-01-01,2008-12-31,2003,2008,6,FALSE,2003-01-01,2008-12-31,2003,2008,6,FALSE,4.866008758544922,368.443629493316,570.6209964754188,1135.7194170290693,1331.7258017034303,1.0696185366755429,963.2821722101144,767.2757875357532,1424.4386032710872,1.4787345228272155,0.7965223583193155,0.576151476943917
FR-LGt,2.284102,47.322918,153,2017,2020,2.596904761904762,5.059687523841858,Cfb,WET,278.12701416015625,icos_warmwinter2020,C3,13.17057829335978,0.8952626505788757,2017-01-26,2020-12-13,2018,2019,2,FALSE,2017-01-26,2020-12-17,2018,2019,2,FALSE,NA,NA,NA,NA,0,TRUE,10.613797187805176,364.82526245713234,378.6345851326788,NA,1038.7352658420536,NA,673.9100033849213,NA,NA,NA,NA,NA
FR-Lam,1.2379,43.4965,182,2005,2020,0.8930252772826303,2.9244699090980473,Cfb,CRO,188.0902099609375,icos_warmwinter2020,rotation,14.70298247859959,0.7955658993495897,2005-03-12,2017-02-18,2006,2016,11,FALSE,2005-03-11,2017-02-18,2006,2016,11,FALSE,2005-03-11,2017-02-18,2006,2016,11,FALSE,14.058125495910645,213.17066782340407,558.1583483251101,1001.8637996964829,897.740732691596,1.4528616951040252,684.5700648681919,788.6931318730789,1304.2931226622418,1.905273381934064,1.1520999417713875,0.8785310760139268
FR-Lq1,2.735830068588257,45.64305877685547,1066,2004,2006,0.5,2,Cfb,GRA,259.6422119140625,plumber,NA,8.395389904427052,2.0231386750582536,2004-01-08,2006-12-23,2005,2005,1,FALSE,2004-01-01,2006-12-31,2004,2006,3,FALSE,2004-01-01,2006-01-15,2004,2005,2,FALSE,3.0666134357452393,353.108658015728,664.5075727948705,475.5122259653955,1328.7213196909504,0.27167917097268174,975.6126616752224,122.40356794966752,360.98590658736504,0.3700094522835701,0.1254632834915125,0.09212132456649193
FR-Lq2,2.737030029296875,45.639190673828125,1081,2004,2006,0.5,2,Cfb,GRA,259.6422119140625,plumber,NA,8.395389904427052,2.0218538031958753,2004-02-06,2006-12-18,2005,2005,1,FALSE,2004-01-01,2006-12-31,2004,2006,3,FALSE,2004-01-01,2006-01-15,2004,2005,2,FALSE,6.372706890106201,353.37750967343646,581.1109359244184,466.62406556027463,1328.9901713486588,0.2716245121806908,975.6126616752224,113.24655588683814,360.9863069855121,0.37000986269044855,0.11607737408038833,0.08521248563630503
FR-Pue,3.595829963684082,43.74139022827149,270,2000,2014,6.5,11,Csa,EBF,260.3506774902344,plumber,C3,14.781709458294772,1.0012735011078682,2000-07-22,2014-12-31,2001,2014,14,FALSE,2000-07-22,2014-12-31,2001,2014,14,FALSE,2003-05-28,2014-02-06,2004,2013,10,FALSE,2.7245137691497803,373.02816766500473,389.3171347608007,929.1065661754567,1294.7397044209451,1.0522426389803388,921.7115367559404,556.078398510452,1362.3803233725191,1.4780983735622517,0.6033106631903813,0.42949049651578464
FR-Tou,1.37474,43.572857,158,2018,2020,0.4707806229810339,1.038486668340516,Cfa,GRA,171.27365112304688,icos_warmwinter2020,NA,15.91970166468398,0.7709156082337946,2018-01-01,2020-12-31,2018,2020,3,FALSE,2018-01-01,2020-12-31,2018,2020,3,FALSE,2018-01-01,2020-12-31,2018,2020,3,FALSE,5.975724220275879,376.3428116639455,506.77218164033013,1095.7384496828743,1080.06648185719,1.220756356096672,703.7236701932444,719.3956380189288,1318.4980227341357,1.8736019244202375,1.0222700592426865,0.6660660710273294
GF-Guy,-52.9248,5.2787,40,2004,2020,35,58,Af,EBF,530.6138916015625,icos_warmwinter2020,C3,26.482598944706343,1.772622625499132,2004-01-01,2020-12-26,2004,2019,16,FALSE,2004-01-01,2020-12-27,2004,2019,16,FALSE,NA,NA,NA,NA,0,TRUE,7.748089790344238,401.3703470300226,1284.5702466919197,NA,3493.0170615843545,0.6655557644956865,3091.646714554332,NA,2324.7976408192517,0.7519609630282018,NA,NA
GL-Dsk,-53.51413,69.25349,8,2020,2020,5.460000002384186,9.059999990463258,ET,SNO,151.00140380859375,icos_warmwinter2020,C3,-1.866115902889038,0,2020-01-01,2020-12-31,2020,2020,1,FALSE,2020-01-01,2020-12-31,2020,2020,1,FALSE,NA,NA,NA,NA,0,TRUE,NA,261.89240522682667,128.89482096281847,NA,261.89240522682667,NA,0,NA,NA,NA,NA,NA
HU-Bug,19.601299285888672,46.69110107421875,106,2003,2006,1,4,Cfb,GRA,191.98248291015625,plumber,NA,11.665757230211844,0.8004155865453573,2003-03-31,2005-06-16,2004,2004,1,FALSE,2003-01-01,2006-12-31,2003,2006,4,FALSE,2003-01-01,2006-12-31,2003,2006,4,FALSE,9.530488967895508,347.0144484192133,464.8305222418888,879.2691197115885,877.2277789733181,1.26844799693331,530.2133305541048,532.2546712923752,1112.7178190929617,2.0986228654985055,1.0038500366185381,0.6067462568448421
ID-Pag,113.9000015258789,-2.319999933242798,30,2002,2003,26,41,Af,EBF,269.3514099121094,plumber,NA,27.941945950411856,1.5059433694299476,2003-05-23,2003-12-25,2004,2002,-1,TRUE,2002-01-01,2003-12-31,2002,2003,2,FALSE,NA,NA,NA,NA,0,TRUE,6.140288352966309,401.0237756371498,1265.2924946077237,NA,2473.341284485359,0.9661014781053758,2072.3175088482094,NA,2389.4986708003544,1.1530562573533598,NA,NA
IE-Ca1,-6.918139934539795,52.85879135131836,72,2004,2006,0.8999999761581421,1.899999976158142,Cfb,CRO,172.05734252929688,plumber,NA,11.463072899719744,1.7907353567495237,2004-01-07,2006-12-16,2005,2005,1,FALSE,2004-01-01,2006-12-31,2004,2006,3,FALSE,2004-01-01,2006-12-31,2004,2006,3,FALSE,6.167691707611084,361.82228805621463,105.6126899215164,NA,1041.6658870141537,0.49000373667246366,679.8435989579391,NA,510.4201770011716,0.7507905903409859,NA,NA
IE-Cra,-7.641774,53.32309,59,2020,2020,2.596904761904762,5.059687523841858,Cfb,WET,176.38888549804688,icos_warmwinter2020,C3,10.182158504233849,2.0481056950865586,2020-01-01,2020-12-31,2020,2020,1,FALSE,2020-01-01,2020-12-31,2020,2020,1,FALSE,2020-01-01,2020-12-31,2020,2020,1,FALSE,5.880727291107178,175.0837659239769,269.69149967890417,506.9675051724834,1271.4517650545295,0.48449363461016054,1096.3679991305526,331.8837392485065,616.0102868827729,0.5618645266655763,0.30271199041900043,0.2610273927570291
IE-Dri,-8.751810073852539,51.986690521240234,186,2003,2005,0.5,1.1029411764705883,Cfb,GRA,208.4802703857422,plumber,NA,9.695496009523698,3.3077735642036865,2003-03-08,2004-10-21,2004,2003,0,TRUE,2003-01-01,2005-09-06,2003,2004,2,FALSE,2003-01-01,2005-09-06,2003,2004,2,FALSE,6.17643404006958,355.574291408062,420.6039658229065,926.2934720526451,1627.3990616938827,0.49788359942760174,1271.8247702858207,570.7191806445832,810.255302541252,0.637080926139818,0.44874041926099917,0.3506940578241139
IL-Yat,35.05149841,31.34499931,664,2000,2020,14.08656693689504,22.63080946931385,BSh,ENF,233.7943572998047,icos_warmwinter2020,C3,20.727697933461823,0.17437708614918607,2011-09-23,2020-12-31,2012,2020,9,FALSE,2011-09-22,2020-12-31,2012,2020,9,FALSE,2011-09-22,2020-12-31,2012,2020,9,FALSE,4.1512298583984375,219.47531165679297,262.9422283130885,634.1648973934018,457.0435059543603,4.116128053558292,237.5681942975673,414.6895857366088,1881.2495965553787,7.918777183611581,1.7455602041457925,0.9073306596287556
IT-Amp,13.605159759521484,41.90409851074219,991,2003,2006,0.5,1.1029411764705883,Cfa,GRA,337.0481262207031,plumber,NA,10.314022384524076,1.1514398801126275,2003-01-01,2006-12-22,2003,2005,3,FALSE,2003-01-01,2006-12-29,2003,2005,3,FALSE,2003-01-01,2006-12-29,2003,2005,3,FALSE,6.141429424285889,361.20683640241623,606.7907955388023,1006.4017123497364,1214.7240966236404,1.068413766242337,853.5172602212242,645.1948759473202,1297.827947018984,1.5205643839968723,0.7559248137291228,0.5311452022238279
IT-BCi,14.957444,40.52375,10,2004,2020,1,2.2502127659574467,Csa,CRO,408.5556945800781,icos_warmwinter2020,C4,19.200957013707676,1.0286708698288394,2004-05-01,2020-12-31,2005,2020,16,FALSE,2004-05-01,2020-12-31,2005,2020,16,FALSE,2004-05-01,2012-11-23,2005,2011,7,FALSE,6.693691730499268,384.9343049175599,744.6052168322097,1288.5611552026207,1407.6863123505352,0.9587775589822338,1022.7520074329752,903.6268502850608,1349.6580463681485,1.3196337299358434,0.8835248855224357,0.6419234472602047
IT-BFt,10.741966,45.197754,23,2019,2020,19.4375,42.87683823529412,Cfa,DBF,383.9016723632813,icos_warmwinter2020,C3,16.035307272197905,1.0520555898267967,2019-01-01,2020-12-31,2019,2020,2,FALSE,2019-01-01,2020-12-31,2019,2020,2,FALSE,2019-01-01,2020-12-31,2019,2020,2,FALSE,4.17312479019165,185.12025874853137,586.5922734208443,1148.5719876578794,922.3202607202546,1.6288848730537362,737.2000019717233,963.451728909348,1502.3535207982009,2.0379184980737786,1.3069068452692476,1.0445956463723058
IT-CA1,12.026559829711914,42.380409240722656,200,2012,2013,5.5,12.132352941176473,Csa,DBF,364.29302978515625,plumber,C3,17.391524191236435,0.6745233336438873,2012-01-01,2013-07-05,2012,2012,1,FALSE,2012-01-01,2013-07-05,2012,2012,1,FALSE,2012-01-01,2013-07-05,2012,2012,1,FALSE,5.176156997680664,380.97902578115463,708.8235482405278,NA,1100.800027415723,NA,719.8210016345685,NA,NA,NA,NA,NA
IT-CA2,12.026040077209473,42.377220153808594,200,2012,2013,0.30000001192092896,0.6617647321785198,Csa,CRO,364.29302978515625,plumber,C3,17.222496502500412,0.6825415631439046,2012-01-01,2013-12-31,2012,2013,2,FALSE,2012-01-01,2013-12-31,2012,2013,2,FALSE,2012-01-01,2013-12-31,2012,2013,2,FALSE,5.427534103393555,379.9926834702492,470.3596200129957,988.6377080113975,1101.4421850750582,NA,721.4495016048091,608.6450245411484,NA,NA,0.8436418948065861,0.5525891715321145
IT-CA3,12.022199630737305,42.380001068115234,197,2012,2013,3.5,7,Csa,DBF,364.29302978515625,plumber,C3,17.004467182162884,0.6720248356092244,2012-01-01,2013-12-31,2012,2013,2,FALSE,2012-01-01,2013-12-31,2012,2013,2,FALSE,2012-01-01,2013-12-31,2012,2013,2,FALSE,4.888474464416504,378.8810932338238,602.7427087560122,1070.4770341410904,1088.0465946296426,1.0504338753639275,709.1655013958189,691.5959409072666,1142.92100097334,1.6116421325117756,0.9752250208816265,0.6356308124310404
IT-Col,13.588139533996582,41.849361419677734,1560,2007,2014,13,25.200000762939453,Cfa,DBF,395.8569641113281,plumber,C3,8.697006049884909,1.2271269160542455,2007-01-01,2014-12-31,2007,2014,8,FALSE,2007-01-01,2014-12-31,2007,2014,8,FALSE,2007-01-01,2014-12-31,2007,2014,8,FALSE,4.2830281257629395,364.05050083994865,413.87855041198793,987.0470897128786,1533.4652544211056,0.9857906885914243,1169.414753581157,622.9965888729299,1511.6757690868053,1.2926771827168468,0.5327422002887313,0.4062671697821518
IT-Cp2,12.357293,41.704266,19,2012,2020,28.34545456279408,62.52673800616341,Csa,EBF,499.8299560546875,icos_warmwinter2020,C3,18.3738563760156,0.6306525388804037,2012-10-03,2014-10-12,2013,2013,1,FALSE,2012-10-04,2014-10-13,2013,2013,1,FALSE,2012-10-04,2014-10-13,2013,2013,1,FALSE,5.766822338104248,384.6257358723217,413.0967256898344,831.5520292278011,1021.8018493169718,1.5831677878610049,637.1761134446501,446.92629335547934,1617.6837734154342,2.5388330467538127,0.7014172124867369,0.4373903743218211
IT-Cpz,12.376110076904297,41.70524978637695,68,2001,2008,13,28.676470588235297,Csa,EBF,499.8299560546875,plumber,C3,17.356518049554165,0.6707851875444899,2001-01-01,2008-12-12,2001,2007,7,FALSE,2001-01-01,2008-12-11,2001,2007,7,FALSE,2001-01-01,2008-12-11,2001,2007,7,FALSE,6.865370273590088,381.5571380034089,483.56742243044897,936.6218752746978,1201.8851406645372,1.4817179404764704,820.3280026611283,555.0647372712889,1780.8547753147311,2.1709057468935264,0.6766375589650354,0.46182843808551183
IT-Isp,8.633580207824707,45.81264114379883,210,2013,2014,19,38,Cfb,DBF,227.1270446777344,plumber,C3,14.4469038759803,2.412072953095964,2013-01-03,2014-12-31,2014,2014,1,FALSE,2013-01-01,2014-12-31,2013,2014,2,FALSE,2013-01-01,2014-12-31,2013,2014,2,FALSE,10.579035758972168,370.38319516181946,521.2062847980793,1267.2278502100544,2371.446194187818,0.6041366828522498,2001.0629990259988,896.8446550482348,1432.6776373192206,0.715958287178647,0.44818411788372814,0.37818469474294336
IT-LMa,7.582590103149414,45.15258026123047,350,2003,2004,25,55.14705882352941,Cfb,DBF,228.6939697265625,plumber,NA,15.261585870794168,1.2293403807376742,NA,NA,NA,NA,NA,NA,NA,NA,NA,NA,NA,NA,NA,NA,NA,NA,NA,NA,3.3266327381134033,372.43198624253273,499.22978679175367,NA,1229.4123208103665,1.2855468152285092,856.9803345678338,NA,1580.467093620457,1.8442279593468969,NA,NA
IT-Lav,11.281319618225098,45.956199645996094,1353,2003,2020,28,61.76470588235294,Cfb,ENF,239.14027404785156,icos_warmwinter2020,C3,8.32629475264842,1.2715522910276948,2003-01-01,2020-12-31,2003,2020,18,FALSE,2003-01-01,2020-12-31,2003,2020,18,FALSE,2003-01-01,2017-01-23,2003,2016,14,FALSE,3.2772305011749268,359.2823605371846,600.6270482853661,1087.6290475234298,1481.3378081102312,0.9506844633549446,1122.0554475730466,728.3466869862452,1408.284839150665,1.2550938032489565,0.649118266447193,0.49168169677341184
IT-Lsn,12.750297,45.740482,1,2016,2020,0.20000000298023224,0.44117647716227704,Cfa,OSH,156.6723175048828,icos_warmwinter2020,C3,15.893817267337866,1.1521555329673836,2016-01-01,2020-12-31,2016,2020,5,FALSE,2016-01-01,2020-12-31,2016,2020,5,FALSE,2016-01-01,2020-12-31,2016,2020,5,FALSE,8.034675598144531,370.7877748250961,484.46924647347794,1192.0187426244352,1440.6359747641318,0.99136391680632,1069.8481999390356,821.230967799339,1428.1945226342605,1.3349506245050886,0.7676144782466674,0.5700475221950466
IT-MBo,11.045831,46.01468,1550,2003,2020,0.30000001192092896,0.6617647321785198,Dfb,GRA,227.96392822265625,icos_warmwinter2020,C3,6.565266128329867,1.9671584244313025,2003-01-07,2013-12-22,2004,2012,9,FALSE,2003-01-07,2013-12-23,2004,2012,9,FALSE,2003-01-07,2013-12-23,2004,2012,9,FALSE,4.349808216094971,351.90642180045444,502.88782528983165,947.2937090276625,1417.7857023119727,0.5779379399965757,1065.8792805115183,595.3872872272082,819.3921481507798,0.768747608788822,0.558587917143375,0.41994166414311734
IT-Mal,11.703339576721191,46.11402130126953,1610,2003,2003,0.5,1.1029411764705883,ET,GRA,235.1103057861328,plumber,NA,6.123424562833543,3.649517735940008,2003-01-01,2003-10-19,2003,2002,0,TRUE,2003-01-01,2003-12-04,2003,2002,0,TRUE,2003-01-01,2003-12-04,2003,2002,0,TRUE,1.822266936302185,347.959554374218,409.8128173867788,NA,2181.24580494278,0.5239763375725102,1833.286250568562,NA,1142.9211882193197,0.6234275677706427,NA,NA
IT-Noe,8.151689529418945,40.606178283691406,25,2004,2014,1.2000000476837158,3,-,CSH,130.3952178955078,plumber,C3,18.102837000464827,0.4840194179970657,2004-04-06,2011-03-08,2005,2010,6,FALSE,2004-04-06,2011-03-08,2005,2010,6,FALSE,2004-04-06,2011-03-08,2005,2010,6,FALSE,3.919835567474365,384.7801680456509,432.0637496524087,834.7757817869951,955.471714697107,1.7694196706060683,570.6915466514561,449.9956137413442,1690.6304466927704,2.9624241967707037,0.7885093381559658,0.47096696513302516
IT-Non,11.091090202331545,44.690189361572266,14,2002,2002,7,13,Cfa,MF,318.0335693359375,plumber,NA,15.4593498445681,2.719688878787285,2002-01-23,2002-12-31,2003,2002,0,TRUE,2002-01-01,2002-12-31,2002,2002,1,FALSE,2002-01-01,2002-12-31,2002,2002,1,FALSE,6.658273696899414,368.1922205090523,354.2659999911552,796.5241917356612,1843.622805322473,0.679175018375171,1475.4305848134206,428.33197122660897,1252.142552681775,0.8486624620433213,0.29030980897062997,0.23233167326311538
IT-PT1,9.061039924621582,45.200870513916016,60,2003,2004,26,57.352941176470594,Cfa,DBF,273.28887939453125,plumber,C3,14.400276708204842,0.7259080471393591,2003-01-01,2004-10-23,2003,2003,1,FALSE,2003-01-01,2004-10-23,2003,2003,1,FALSE,2003-01-01,2004-10-23,2003,2003,1,FALSE,5.271664142608643,363.8229979276657,522.0445924155551,1168.0071454169235,1007.1510001750523,1.2613314815728272,643.3280022473866,804.1841474892578,1270.3512632183536,1.9746556325553044,1.2500375309017178,0.7984742579310183
IT-Ren,11.43369,46.58686,1735.6,1999,2020,28,61.76470588235294,Dfc,ENF,263.0419006347656,icos_warmwinter2020,C3,5.626812045165006,1.2009153410109945,2000-12-26,2015-01-02,2001,2014,14,FALSE,2000-04-08,2015-01-01,2001,2014,14,FALSE,2000-04-08,2015-01-01,2001,2014,14,FALSE,3.581643581390381,349.3350826881149,573.0993765818527,916.2775324088224,1311.3880400158223,0.9923849003698993,962.0529573277074,566.9424497207075,1301.4016894373794,1.3527339420610278,0.5893048250644147,0.43232241901021695
IT-Ro1,11.930009841918944,42.40811920166016,235,2002,2006,15,33.08823529411765,Csa,DBF,640.0245361328125,plumber,C3,17.12544968939246,0.8050719225164608,2002-01-01,2006-12-31,2002,2006,5,FALSE,2002-01-01,2006-12-31,2002,2006,5,FALSE,NA,NA,NA,NA,0,TRUE,4.482612609863281,380.92040143013,436.4690280041606,NA,1241.7410049881796,1.2425222910100278,860.8206035580497,NA,1542.8908783590073,1.7923489191380186,NA,NA
IT-Ro2,11.92092990875244,42.3902587890625,160,2002,2008,15,33.08823529411765,Csa,DBF,350.0084533691406,plumber,C3,16.768156575175972,0.7926442648530311,2002-01-01,2008-12-04,2002,2007,6,FALSE,2002-01-01,2008-12-04,2002,2007,6,FALSE,2002-01-01,2008-12-04,2002,2007,6,FALSE,4.975353240966797,379.626384471144,465.78285477377233,1037.4399183569565,1235.3889591702482,1.2765135343242398,855.7625746991042,657.8135338858125,1576.9907265355575,1.8427900134450788,0.7686869621718467,0.5324748363686481
IT-SR2,10.29091,43.73202,4,2013,2020,19,41.911764705882355,Csa,ENF,187.77357482910156,icos_warmwinter2020,C3,16.82028096655243,0.9948802355728084,2013-01-01,2020-12-31,2013,2020,8,FALSE,2013-01-01,2020-12-31,2013,2020,8,FALSE,2013-01-01,2020-12-31,2013,2020,8,FALSE,5.567625999450684,379.34090761840343,763.9414281977852,1273.7258902350495,1481.4336618295756,1.1063453152037783,1102.0927542111722,894.3849826166462,1638.9771915503293,1.4871499565600852,0.8115333116919059,0.6037293506022252
IT-SRo,10.28444004058838,43.72785949707031,6,2003,2012,16,23.5,Csa,ENF,187.77357482910156,plumber,C3,16.614085122019887,0.8330922437653885,2008-12-25,2012-12-31,2009,2012,4,FALSE,2008-12-25,2012-12-31,2009,2012,4,FALSE,2005-09-15,2008-08-20,2006,2007,2,FALSE,5.413545608520508,376.6695156037807,565.8993451994646,1140.877814169828,1213.955718508153,1.4071251863654124,837.2862029043722,764.2082985660475,1708.1876666451428,2.040147873833098,0.9127205200744588,0.6295190894649713
IT-Tor,7.578055,45.84444,2168,2008,2020,0.6142857159887042,2.21,Dfc,GRA,218.556884765625,icos_warmwinter2020,C3,4.875666602016547,1.9405567417210323,2008-06-20,2020-12-31,2009,2020,12,FALSE,2008-06-20,2020-12-31,2009,2020,12,FALSE,2008-06-20,2020-12-31,2009,2020,12,FALSE,3.2044947147369385,353.5546781879205,524.6111497306262,1005.628810830066,1280.5020637385696,0.5819460540074826,926.9473855506492,652.0741326421454,745.1831231410985,0.8039109174448186,0.7034640183539472,0.5092331758828578
JP-SMF,137.07879638671875,35.26169967651367,199,2003,2006,8.100000381469727,19,Cfa,MF,195.4050750732422,plumber,C3,15.751559456398098,1.8193378395732325,2003-01-01,2006-12-31,2003,2006,4,FALSE,2003-01-01,2006-12-31,2003,2006,4,FALSE,NA,NA,NA,NA,0,TRUE,2.9250128269195557,370.1510068327189,784.7815764544843,NA,1950.0147844464939,NA,1579.863777613775,NA,NA,NA,NA,NA
NL-Ca1,4.927000045776367,51.97100067138672,1,2003,2006,0.5,1.1029411764705883,Cfb,GRA,163.46798706054688,plumber,NA,11.522260877972387,1.2707987432162795,2003-01-06,2004-10-17,2004,2003,0,TRUE,2003-01-01,2006-12-31,2003,2006,4,FALSE,2003-01-01,2006-12-31,2003,2006,4,FALSE,7.275374889373779,355.757768958807,518.0829801732432,1111.9967130568464,1044.4348302336007,0.8853593644945629,688.6770612747937,756.2389440980394,924.7001575516074,1.3427195554327265,1.098103866997085,0.7240652285876921
NL-Hor,5.071300029754639,52.24034881591797,2.200000047683716,2008,2011,1,2.2058823529411766,Cfb,GRA,909.8111572265624,plumber,C3,10.81302191065863,1.6626783663834608,2008-01-01,2011-09-08,2008,2010,3,FALSE,2008-01-01,2008-12-31,2008,2008,1,FALSE,2008-01-01,2008-12-31,2008,2008,1,FALSE,5.894153118133545,348.2923150062561,668.6356331381364,631.3965979287073,1335.133817035256,0.6697106278414703,986.841502029,283.1042829224512,894.1533068590601,0.9060759048141288,0.2868791820574766,0.2120418787317522
NL-Loo,5.74355,52.166447,33,1996,2018,15.5,26,Cfb,ENF,220.64414978027344,icos_drought2018,C3,11.091574818458993,1.0187348769146172,1996-07-22,2018-09-15,1997,2017,21,FALSE,1996-01-08,2018-09-15,1997,2017,21,FALSE,1996-01-08,2018-09-15,1997,2017,21,FALSE,6.18347692489624,353.48218140653944,549.7285721729227,975.1466814140888,1157.0547063418305,1.1258821297368116,803.5725249352911,621.6645000075493,1302.7072169981411,1.6211445470998944,0.7736258778354945,0.537281855905515
PE-QFR,-73.319,-3.8344,104,2018,2019,1.8565277797645992,5.059807703311627,Af,WET,265.29791259765625,ameriflux,NA,25.88252067077816,2.265384846410788,2018-01-01,2019-12-31,2018,2019,2,FALSE,2018-01-01,2019-12-31,2018,2019,2,FALSE,NA,NA,NA,NA,0,TRUE,5.628481864929199,401.51708006858826,1029.2020823663493,NA,3235.759081489157,0.557931146939099,2834.2420014205686,NA,1805.3307755538508,0.6369712870845148,NA,NA
PL-wet,16.30940055847168,52.76219940185547,55,2004,2005,1,2.5,Cfb,WET,234.3014373779297,plumber,NA,9.069474729361586,0.9374187016068224,2004-02-03,2005-12-31,2005,2005,1,FALSE,2004-01-01,2005-12-31,2004,2005,2,FALSE,2004-03-13,2005-12-31,2005,2005,1,FALSE,8.654946327209473,338.55264273285866,451.8528733616088,917.3020059932006,858.0595150969857,1.1915965906260497,519.506872364127,578.749363260342,1022.4607927438096,1.968137183808336,1.1140360100081435,0.674486271730145
PT-Esp,-8.601799964904785,38.639400482177734,90,2002,2004,20,33,Csa,EBF,398.8717346191406,plumber,NA,17.819729550839337,0.5628183724865894,NA,NA,NA,NA,NA,NA,NA,NA,NA,NA,NA,NA,NA,NA,NA,NA,NA,NA,5.202613353729248,384.21371074517566,571.3193058639702,NA,995.3280486902124,1.9319878771645382,611.1143379450368,NA,1922.9617238713256,3.1466480238993757,NA,NA
PT-Mi1,-8.000060081481934,38.54064178466797,230,2005,2005,7.300000190734863,29,Csa,EBF,723.00933837890625,plumber,NA,16.690959141066685,0.21772534712855976,NA,NA,NA,NA,NA,NA,NA,NA,NA,NA,NA,NA,NA,NA,NA,NA,NA,NA,5.609499454498291,380.4299913048744,167.79102530368928,NA,624.2299937141361,3.1478790442444513,243.8000024092617,NA,1965.0005160015744,8.059887188610324,NA,NA
PT-Mi2,-8.024550437927246,38.47650146484375,193,2005,2006,0.10000000149011612,0.22058823858113852,Csa,GRA,505.8746032714844,plumber,NA,15.030543064777673,0.5650529473996583,2005-01-01,2006-12-31,2005,2006,2,FALSE,2005-01-01,2006-12-31,2005,2006,2,FALSE,2005-01-01,2006-12-31,2005,2006,2,FALSE,5.322659969329834,372.5913682579994,380.50813565609775,1009.2445933383883,1005.4739787222753,1.2551297263760424,632.8826104642759,636.6532250803889,1262.00027979192,1.9940511224761417,1.0059578420291038,0.6331871719737867
RU-Che,161.3414306640625,68.613037109375,6,2003,2004,0.4000000059604645,0.8823529543245541,Dfc,WET,178.8917999267578,plumber,C3,-7.315679901246997,0.2042301900381212,2003-05-10,2003-11-28,2004,2002,-1,TRUE,2003-05-10,2004-09-29,2004,2003,0,TRUE,NA,NA,NA,NA,0,TRUE,7.707398891448975,195.15777633339167,178.5399092462112,NA,267.8057766911338,NA,72.64800035774213,NA,NA,NA,NA,NA
RU-Fy2,32.901878,56.447603,271,2015,2020,12.444598754835717,19.085428571428572,Dfb,ENF,270.4170227050781,icos_warmwinter2020,C3,6.753964975207188,0.9136023923011728,2015-05-08,2020-12-31,2016,2020,5,FALSE,2015-05-08,2020-12-31,2016,2020,5,FALSE,2015-05-08,2020-12-31,2016,2020,5,FALSE,4.741576194763184,175.69397577146688,363.42553168456107,764.0758555517058,757.9068108165167,1.3712238428275763,582.2128350450498,588.3818797802389,1039.2598896330169,1.7850171399134511,1.0105958583594465,0.7763248349046458
RU-Fyo,32.922080993652344,56.46152877807617,265,1998,2020,21,46.32352941176471,Dfb,ENF,284.5625915527344,icos_warmwinter2020,C3,6.1719212515271,0.9039673388054524,1998-07-05,2010-11-28,1999,2009,11,FALSE,1998-06-01,2020-12-31,1999,2020,22,FALSE,1998-06-01,2020-12-31,1999,2020,22,FALSE,6.53300666809082,315.1067668445732,387.3603778696903,749.0107861271842,866.7338993831688,1.139886869285298,551.6271325385956,433.90401928261105,987.9785910713188,1.791026098597848,0.7865893348751336,0.5006196476120397
RU-Zot,89.350799560546875,60.80080032348633,124,2003,2003,12,30,Dfc,WSA,980.288330078125,plumber,NA,-0.8707732998371696,0.6224840473366039,2003-05-29,2003-11-19,2004,2002,-1,TRUE,2003-05-25,2003-11-20,2004,2002,-1,TRUE,2003-05-25,2003-11-20,2004,2002,-1,TRUE,4.385681629180908,241.97868140041828,215.02015562115255,NA,492.5088333772592,1.6723009868211935,250.53015197684093,NA,823.6230080749453,3.28752049035232,NA,NA
SD-Dem,30.478300094604492,13.282899856567385,500,2005,2009,1.5,2.5,BWh,SAV,128.50904846191406,plumber,C3,29.67294111631785,0.27425147726244736,2007-07-05,2009-12-05,2008,2008,1,FALSE,2007-07-06,2009-12-05,2008,2008,1,FALSE,2007-07-06,2009-12-05,2008,2008,1,FALSE,6.532639980316162,404.4385277986527,535.0152981261253,1309.1997092532195,689.3785282043796,2.0623953120945697,284.94000040572695,904.7611814545668,1421.7710448273665,4.989720793159621,3.1752691098697072,1.3124301736104158
SE-Deg,19.55654,64.18203,270,2001,2020,0.5,1.7999999523162842,Dfc,WET,266.7126770019531,icos_warmwinter2020,C3,3.021000261461394,1.6116611132970902,2001-01-02,2017-11-07,2002,2016,15,FALSE,2001-01-02,2020-12-31,2002,2020,19,FALSE,2011-11-28,2020-12-31,2012,2020,9,FALSE,7.334924221038818,302.91359470933673,264.85857958716895,689.3358769884765,811.9457964884086,0.6280896999292964,509.0322017790719,386.42228227913967,509.9747916752582,1.001851729405118,0.7591313102168987,0.47592127941345436
SE-Htm,13.41897,56.09763,115,2015,2020,15.01866664759318,25.73499988555908,Cfb,ENF,276.3246154785156,icos_warmwinter2020,C3,9.4026300493004,1.5384813629744216,2015-01-01,2020-12-31,2015,2020,6,FALSE,2015-01-01,2020-12-31,2015,2020,6,FALSE,2015-01-01,2020-12-31,2015,2020,6,FALSE,4.670687675476074,346.49200488130253,339.76713068469115,805.8435301357774,1169.8588387372508,0.8949919703498384,823.3668338559482,459.3515252544749,1047.014267112626,1.2716255064699458,0.557894132197752,0.3926555153870533
SE-Lnn,13.10176754,58.34062958,72,2014,2018,1.9984558823529412,5.7072,Dfb,CRO,165.4405975341797,icos_drought2018,C3,8.690575471569488,0.8843850277908096,2014-01-01,2018-12-31,2014,2018,5,FALSE,2014-01-01,2018-12-31,2014,2018,5,FALSE,NA,NA,NA,NA,0,TRUE,11.837634086608888,205.90993322730063,166.55223656128106,NA,690.6095337472304,NA,484.69960051992985,NA,NA,NA,NA,NA
SE-Nor,17.479504,60.0865,45,2014,2020,12.444598754835717,19.085428571428572,Dfb,ENF,263.8726806640625,icos_warmwinter2020,C3,8.148463014709382,1.015320982673793,2014-01-01,2020-12-31,2014,2020,7,FALSE,2014-01-01,2020-12-31,2014,2020,7,FALSE,2014-01-01,2020-12-31,2014,2020,7,FALSE,4.983108043670654,NA,355.5453466897538,NA,NA,NA,540.836429630854,468.5492310707545,997.3190185890284,1.8440307715028459,0.8663418464443328,NA
SE-Ros,19.738,64.1725,166,2014,2020,12.444598754835717,19.085428571428572,Dfc,ENF,266.7126770019531,icos_warmwinter2020,C3,4.359306262540274,1.5939704176528626,2014-07-17,2020-12-31,2015,2020,6,FALSE,2014-07-11,2020-12-26,2015,2019,5,FALSE,2015-06-17,2020-12-26,2016,2019,4,FALSE,3.1801342964172363,177.61462510696478,290.62610509519493,470.929485089649,806.1093400514542,0.8355751947208679,628.4947149444894,293.3148599826842,673.5649687798042,1.071711428534917,0.46669423466606347,0.36386485729586243
SE-Svb,19.7745,64.25611,267,2014,2020,12.444598754835717,19.085428571428572,Dfc,ENF,274.9810791015625,icos_warmwinter2020,C3,3.6690633163899458,1.4298865564117234,2018-01-01,2020-12-31,2018,2020,3,FALSE,2018-01-02,2020-12-31,2019,2020,2,FALSE,2018-01-02,2020-12-31,2019,2020,2,FALSE,7.426940441131592,310.96461694581166,290.9939211967152,634.234592396238,911.2411890463827,0.9325113082697164,600.2765721005711,323.26997545042633,849.7427133468943,1.415585336561373,0.5385350527994041,0.35475786140520005
UK-Gri,-3.7980599403381343,56.60721969604492,343,2000,2001,10,15.399999618530272,Cfb,ENF,243.5284881591797,plumber,NA,6.663816219081108,4.570990495111569,2000-01-14,2000-11-13,2001,1999,-1,TRUE,2000-01-03,2001-12-04,2001,2000,0,TRUE,2000-01-03,2001-12-04,2001,2000,0,TRUE,6.411627769470215,341.42912444472313,426.74270705790366,NA,1556.3982282429224,0.5957761281917141,1214.9691037981993,NA,927.264910347012,0.7632004035725886,NA,NA
UK-Ham,-0.858299970626831,51.15353012084961,76,2004,2004,22,48.52941176470589,Cfb,DBF,156.73458862304688,plumber,NA,11.802304538918014,1.3892533229236612,NA,NA,NA,NA,NA,NA,NA,NA,NA,NA,NA,NA,NA,NA,NA,NA,NA,NA,5.213935375213623,362.1358312368393,243.8574453629252,650.4289232909978,1158.835837877661,0.8663272387624996,796.7000066408218,288.2930920541584,1003.9310516075818,1.260111765080211,0.36185903056497687,0.24877819845660804
UK-PL3,-1.266669988632202,51.45000076293945,104,2005,2006,22,48.52941176470589,Cfb,DBF,154.4820556640625,plumber,NA,15.453350099868352,0.9497399978985772,NA,NA,NA,NA,NA,NA,NA,NA,NA,NA,NA,NA,NA,NA,NA,NA,NA,NA,6.005970478057861,377.2410304248333,505.482996419282,NA,933.1201240775988,1.0444359200470394,555.8790936527655,NA,974.5841753053944,1.753230489208102,NA,NA
US-A32,-97.8198,36.8193,335,2015,2017,0.4707806229810339,1.038486668340516,Cfa,GRA,175.78843688964844,ameriflux,NA,18.358431219739376,0.7839723818799349,2016-01-24,2017-06-15,2017,2016,0,TRUE,2015-06-17,2017-06-15,2016,2016,1,FALSE,2015-06-17,2017-06-15,2016,2016,1,FALSE,7.005794525146484,376.8512285749118,914.3611098263916,1455.0575450793401,1195.8998961441685,1.2293375432895244,819.0486675692566,1078.2063165044283,1470.1646403460695,1.7949661583714822,1.316413003520646,0.9015857597954403
US-A74,-97.5489,36.8085,337,2015,2017,0.8930252772826303,2.9244699090980473,Cfa,CRO,170.83566284179688,ameriflux,NA,18.436659155355,0.29518506346055784,2016-01-27,2017-06-04,2017,2016,0,TRUE,2016-01-27,2017-06-05,2017,2016,0,TRUE,2016-01-27,2017-06-05,2017,2016,0,TRUE,6.718222618103027,191.72983676195145,811.311198625668,1097.5942298135524,538.3908372104747,NA,346.6610004485232,905.8643930516008,NA,NA,2.6131130755393857,1.6825405085738272
US-ALQ,-89.6067,46.0308,515,2015,2023,0.8200000047683715,1.8088235399302317,Dfb,WET,245.2679443359375,ameriflux,NA,6.979557013758278,1.5611206548395862,2018-09-05,2021-12-31,2019,2021,3,FALSE,2018-09-06,2021-12-31,2019,2021,3,FALSE,NA,NA,NA,NA,0,TRUE,9.663902282714844,173.30909211933613,533.5502901273601,NA,1202.3056635901,1.0509058180186135,1028.996571470764,NA,1263.510016903566,1.2279049823242922,NA,NA
US-AR1,-99.42,36.4267,611,2009,2012,0.5,1.1029411764705883,Dsa,GRA,150.4324493408203,ameriflux,C4,17.427974072087196,0.6110208400179795,2009-04-29,2012-04-19,2010,2011,2,FALSE,2009-04-29,2012-04-19,2010,2011,2,FALSE,2009-04-29,2012-04-19,2010,2011,2,FALSE,4.420612335205078,375.02219496667385,581.8670079427304,997.4413082077978,875.9926964133186,1.3322587504238677,500.9705014466448,622.4191132411239,1167.0489351040424,2.3295761561488613,1.2424266727158062,0.7105300258661615
US-AR2,-99.5975,36.6358,646,2009,2012,0.25,0.5514705882352942,Dsa,GRA,150.4324493408203,ameriflux,C4,17.586332227687258,0.5055531284808328,2009-04-29,2012-08-03,2010,2011,2,FALSE,2009-04-29,2012-08-03,2010,2011,2,FALSE,2009-04-29,2012-08-03,2010,2011,2,FALSE,6.0273542404174805,375.17156164348125,430.8820926521894,782.3828273551769,786.7940613242471,1.4483858104227187,411.6224996807658,407.2112657116956,1139.581354146902,2.76851084435546,0.9892833021215036,0.5175576249601089
US-ARM,-97.4888,36.6058,314,2003,2023,0.19111111111111112,0.4215686274509805,Cfa,CRO,177.5961456298828,ameriflux,mix,17.433263454950577,0.5755658642578712,2003-01-02,2015-02-27,2004,2014,11,FALSE,2003-01-01,2015-02-27,2003,2014,12,FALSE,2005-03-18,2015-02-27,2006,2014,9,FALSE,5.3345842361450195,371.3370487358835,668.9556153809807,1338.7227789718968,1020.8033277075649,1.5770613947639314,649.4662789716814,967.3857302360132,1609.869519774155,2.478757669024953,1.4895087883049183,0.9476710194592405
US-ARb,-98.0402,35.5497,424,2005,2006,0.1,0.22058823529411767,Cfa,GRA,177.5961456298828,ameriflux,C4,18.180275800004154,0.7321699029145688,2005-03-09,2006-11-01,2006,2005,0,TRUE,2005-03-08,2006-11-01,2006,2005,0,TRUE,2005-03-08,2006-11-01,2006,2005,0,TRUE,4.936348915100098,379.3118500113487,657.9545924840484,1058.2932099718082,1104.3278516532814,NA,725.0160016419327,678.9813599604595,NA,NA,0.936505343913487,0.61483676151422
US-ARc,-98.04,35.5465,424,2005,2006,0.4,0.8823529411764707,Cfa,GRA,177.5961456298828,ameriflux,C4,17.64511784644486,0.7388490859008521,2005-03-08,2006-10-31,2006,2005,0,TRUE,2005-03-08,2006-10-31,2006,2005,0,TRUE,2005-03-08,2006-10-31,2006,2005,0,TRUE,4.936348915100098,377.8000235259533,717.203430829137,1167.9890923386517,1154.5020235406473,NA,776.702000014694,790.1890688126985,NA,NA,1.0173645346577571,0.6844414758055881
US-Aud,-110.50920104980467,31.590700149536133,1466,2003,2005,0.5,1.1029411764705883,BSk,GRA,116.9391632080078,plumber,NA,19.43744237679546,0.2529072625564331,2003-07-02,2005-12-31,2004,2005,2,FALSE,2003-01-04,2005-12-25,2004,2004,1,FALSE,2003-01-01,2005-12-31,2003,2005,3,FALSE,4.112235069274902,404.1687288284302,260.28111168219243,771.4382007997825,741.3785142168344,1.2478394851591368,337.2097853884043,367.26947197135235,925.1213834883804,2.743459483012359,1.0891423911329403,0.49538726160593227
US-BRG,-86.5406,39.2167,180,2016,2020,0.4707806229810339,1.038486668340516,Cfa,GRA,217.98565673828125,ameriflux,NA,14.400563683781051,1.5473790308579138,2017-04-19,2020-11-12,2018,2019,2,FALSE,2017-04-19,2020-11-12,2018,2019,2,FALSE,NA,NA,NA,NA,0,TRUE,9.411404609680176,182.1869040876627,747.7509222354781,NA,1532.3021049913323,NA,1350.1152009036696,NA,NA,NA,NA,NA
US-BZB,-148.3208,64.6955,100,2011,2022,0.8200000047683715,1.8088235399302317,Dfd,WET,206.7255401611328,ameriflux,NA,-0.714968181787494,0.5600569736281624,2014-01-01,2021-12-31,2014,2021,8,FALSE,2014-01-01,2021-12-31,2014,2021,8,FALSE,2014-01-01,2021-12-31,2014,2021,8,FALSE,7.092884540557861,251.80088538202372,242.938886373749,646.0570102559836,515.5300728099257,1.679242810140246,263.72918742790205,394.25612487395995,865.7001681771453,3.2825345446977092,1.4949279172285062,0.7647587321628876
US-BZF,-148.3121,64.7013,95,2011,2022,0.8200000047683715,1.8088235399302317,Dfd,WET,225.3379821777344,ameriflux,NA,-0.44135494265881886,0.6520928818219638,2014-01-27,2021-12-18,2015,2020,6,FALSE,2014-01-25,2021-12-18,2015,2020,6,FALSE,2014-01-25,2021-12-18,2015,2020,6,FALSE,5.993809223175049,254.1938283687288,285.6878565416217,648.5948912077583,516.616106516533,1.3522959138483834,262.42227814780426,394.4010628390295,698.6178498705689,2.6621895625686394,1.502925230368173,0.7634316039784712
US-BZS,-148.3235,64.6963,100,2010,2021,12.444598754835717,19.085428571428572,Dfd,ENF,206.7255401611328,ameriflux,NA,-1.0511885080877326,0.7480298040446595,2015-02-01,2021-12-02,2016,2020,5,FALSE,2015-01-01,2021-12-03,2015,2020,6,FALSE,2015-01-01,2021-12-03,2015,2020,6,FALSE,4.261328220367432,251.89696469157937,251.09032516353935,561.4979861611216,520.1464695628831,1.3228460254047496,268.2495048713037,309.6010214695423,688.0736898895725,2.5650511087417853,1.154153188905521,0.5952189231039529
US-BZo,-148.33,64.6936,100,2018,2022,0.8200000047683715,1.8088235399302317,Dfd,WET,206.7255401611328,ameriflux,NA,-0.5279517728016909,0.6981173106319803,2018-04-07,2021-11-30,2019,2020,2,FALSE,2018-04-06,2021-11-30,2019,2020,2,FALSE,2018-04-06,2021-11-30,2019,2020,2,FALSE,9.576969146728516,247.47849164903164,293.76984827160754,678.944487949799,535.2774947625373,1.2073198940878311,287.79900311350565,431.4659963007674,646.2511682843061,2.245494811632234,1.4991921154452388,0.8060604088953462
US-Bar,-71.2881,44.0646,272,2004,2022,21,46.32352941176471,Dfb,DBF,267.35455322265625,ameriflux,C3,8.512542506340601,1.4471106381579448,2004-02-24,2018-01-02,2005,2017,13,FALSE,2004-02-01,2018-01-06,2005,2017,13,FALSE,NA,NA,NA,NA,0,TRUE,7.529498100280762,NA,321.7182816890886,NA,NA,NA,1191.2915755093309,NA,1320.3402678568082,1.108326706073031,NA,NA
US-Bi1,-121.4993,38.0992,-2.7,2016,2023,0.33983928571428573,0.7496454831932774,Csa,CRO,581.48529052734375,ameriflux,C3,16.7581543084572,0.3413095125906518,2016-08-13,2021-12-31,2017,2021,5,FALSE,2016-08-13,2021-12-31,2017,2021,5,FALSE,2016-08-13,2021-12-31,2017,2021,5,FALSE,7.407294750213623,377.87568432092667,932.8973303060748,1669.3548141148888,759.1140185619083,2.2267855193918646,381.2383342409816,1291.479129793962,1690.3841041010246,4.433930043961762,3.387589897970793,1.7012979581652101
US-Bi2,-121.5351,38.1091,-5,2017,2023,2.047814814814815,4.517238562091504,Csa,CRO,731.2584228515625,ameriflux,C4,17.58894204892018,0.2890843606582111,2017-04-27,2021-12-31,2018,2021,4,FALSE,2017-04-27,2021-12-31,2018,2021,4,FALSE,2017-04-27,2021-12-31,2018,2021,4,FALSE,7.407179355621338,380.6621727943421,767.8318890150621,1526.193573192724,745.26797400223,2.503663683405103,364.6058012078879,1145.531400398382,1865.9003609142817,5.117582755767503,3.1418353646689026,1.5370731607406416
US-Bkg,-96.83616638183594,44.34529113769531,495,2005,2006,1,4,Dfa,GRA,151.6610107421875,plumber,NA,8.980185296287669,1.0736783142287154,2005-02-04,2006-12-15,2006,2005,0,TRUE,2005-01-04,2006-12-16,2006,2005,0,TRUE,2005-01-04,2006-12-16,2006,2005,0,TRUE,5.971064567565918,330.706370934844,848.6824340183157,1281.9318089116564,921.8940128187239,1.3245534588425016,591.1876418838799,951.2254379768124,1221.0979033652343,2.065499710843212,1.609007649323716,1.03181648296902
